"자치구","안심 주소","위도","경도","CCTV 수량","수정 일시"
"강서구","(공사중)C231003(A1069)_염창동 280-21","37.5486","126.8712","1","2022-12-01"
"강서구","(교체예정) C181022(SC121) - 마곡중앙5로 마곡중학교 맞은편","37.5670","126.8219","1","2022-12-01"
"강서구","(교체예정) S312010_화곡본동 748-24 화일초등학교 병설유치원","37.5405","126.8480","1","2022-12-01"
"강서구","(교체예정)C181011(SC131) - 마곡중앙로 국제업무단지 CP2앞(보조1)","37.5634","126.8271","1","2022-12-01"
"강서구","(교체예정)C181026(SC106) - 마곡서1로 8단지 공원부지앞 삼거리","37.5651","126.8193","1","2022-12-01"
"강서구","(교체예정)C181046(SC212) - 공항대로 국제업무단지 C6 앞","37.5594","126.8321","1","2022-12-01"
"강서구","(교체예정)P183019(SC공원22) - 공항대로 마곡역 우측 연결녹지22호 내(보조1줌)","37.5602","126.8283","1","2022-12-01"
"강서구","(노후교체예정)I116001_가양동 97-8 (CJ한길자동차 매매단지)","37.5662","126.8450","1","2022-12-01"
"강서구","(대체카메라)C161021_등촌2동 532-8","37.5496","126.8617","1","2022-12-01"
"강서구","(분기점철거)C231014_염창동 279-12(고정1) - 공항대로59다길 방향","37.5490","126.8716","1","2022-12-01"
"강서구","(설치예정)C181007(SC129) - 마곡동 727-709 마곡역 앞(보조1)","37.5601","126.8259","1","2022-12-01"
"강서구","(성능개선교체예정)C161002(A1023)_등촌2동 365-105","37.5508","126.8591","1","2022-12-01"
"강서구","(성능개선교체예정)C161004(A1025)_등촌2동 366-11","37.5488","126.8606","1","2022-12-01"
"강서구","(성능개선교체예정)C281004(A1100)_화곡4동 790-6","37.5302","126.8594","1","2022-12-01"
"강서구","(성능개선교체예정)C291004(A1119)_화곡6동 958-18","37.5492","126.8525","1","2022-12-01"
"강서구","(성능개선교체예정)C311002(A1135)_화곡본동 102-66","37.5394","126.8466","1","2022-12-01"
"강서구","(성능개선교체예정)C311003_화곡본동 105-239","37.5395","126.8430","1","2022-12-01"
"강서구","(성능개선교체예정)C311004(A1137)_화곡본동 105-207","37.5400","126.8446","1","2022-12-01"
"강서구","(성능개선교체예정)C311005(A1138)_화곡본동 24-144","37.5452","126.8466","1","2022-12-01"
"강서구","(성능개선예정)C141010(A1015)_공항동 672-2","37.5561","126.8158","1","2022-12-01"
"강서구","(성능개선예정)C191004(A1038)_발산1동 708-18","37.5509","126.8350","1","2022-12-01"
"강서구","(성능개선예정)C211004(A1061)_방화2동 614-225","37.5655","126.8107","1","2022-12-01"
"강서구","(성능개선예정)C231002(A1068)_염창동 276-9","37.5498","126.8702","1","2022-12-01"
"강서구","(성능개선예정)C261006(A1082)_화곡2동 869-39","37.5322","126.8535","1","2022-12-01"
"강서구","(성능개선예정)I256001_화곡동 1075-12 (화곡역 5번출구)","37.5412","126.8406","1","2022-12-01"
"강서구","(성능개선예정)I276001_화곡로 137 (화곡역 버스정류장 주변)","37.5412","126.8383","1","2022-12-01"
"강서구","(수리예정)C181039(SC117) - 마곡서1로와 공항대로 교차 사거리(교차로1)","37.5602","126.8199","1","2022-12-01"
"강서구","(수리중)C181066(SC215) - 마곡동 727-1021(마곡중앙8로 문화공원2호 앞(교차로1))","37.5614","126.8305","1","2022-12-01"
"강서구","(수리중)C181084(SC236) - 마곡중앙로8로 1길 연결녹지 9호 앞(교차로2)","37.5689","126.8386","1","2022-12-01"
"강서구","(수리중)C231015_염창동 242-13","37.5551","126.8668","1","2022-12-01"
"강서구","(수리중)C301022_화곡8동 408-30(고정1)","37.5368","126.8463","1","2022-12-01"
"강서구","(수리중)C301024_화곡8동 410-7(보조1)","37.5374","126.8500","1","2022-12-01"
"강서구","(수리중)P213003_개화동 458","37.5793","126.8016","1","2022-12-01"
"강서구","(수리중)S172004(A1032)_(스쿨존)등촌3동 82-1(유석초등학교)","37.5607","126.8543","1","2022-12-01"
"강서구","(수리중)S262003(A6021)_화곡2동 458-28 (우일유치원)","37.5356","126.8546","1","2022-12-01"
"강서구","(임시)P123002_가양2동 1471 구암근린공원","37.5676","126.8522","1","2022-12-01"
"강서구","(임시철거예정)C231003(A1069)_염창동 280-21","37.5487","126.8711","1","2022-12-01"
"강서구","(철거)C161004(A1025)_등촌2동 366-11","37.5488","126.8606","1","2022-12-01"
"강서구","(철거)C161011(A4005)_등촌2동 366-81","37.5494","126.8591","1","2022-12-01"
"강서구","(철거)C161032_등촌2동 366-47(고정3)","37.5485","126.8604","1","2022-12-01"
"강서구","(철거)C161032_등촌2동 366-71(고정1)","37.5485","126.8614","1","2022-12-01"
"강서구","(철거)C161032_등촌2동 366-71(고정2)","37.5485","126.8614","1","2022-12-01"
"강서구","(철거)C161035_등촌2동 366-6(고정1)","37.5492","126.8589","1","2022-12-01"
"강서구","(철거)C161035_등촌2동 366-6(고정2)","37.5492","126.8589","1","2022-12-01"
"강서구","(철거)C201005(A1054)_방화1동 608-97","37.5651","126.8157","1","2022-12-01"
"강서구","(철거)C201005(A1054)_방화1동608-97(보조1) (6시 아이사랑어린이집)","37.5651","126.8157","1","2022-12-01"
"강서구","(철거됨)C251071_화곡1동 366-98(고정3)","37.5341","126.8421","1","2022-12-01"
"강서구","(철거됨)S222002(A1065)_(스쿨존)방화3동 836(정곡초등학교)","37.5766","126.8183","1","2022-12-01"
"강서구","(카메라수리중)C141035_공항동 60-142(고정2) (2시 송정로연결)","37.5583","126.8105","1","2022-12-01"
"강서구","(카메라수리중)C161021_등촌2동 532-8","37.5496","126.8617","1","2022-12-01"
"강서구","172.24.135.88 - 카메라 - 01","37.5705","126.8172","1","2022-12-01"
"강서구","172.24.135.88 - 카메라 - 01","37.5705","126.8173","1","2022-12-01"
"강서구","172.24.135.88 - 카메라 - 01","37.5706","126.8173","1","2022-12-01"
"강서구","172.24.136.89 - 카메라 - 01","37.5579","126.8298","1","2022-12-01"
"강서구","172.24.136.99 - Camera - 01","37.5704","126.8169","1","2022-12-01"
"강서구","172.24.171.27 - Camera - 01","37.5361","126.8598","1","2022-12-01"
"강서구","A1004_(스쿨존)양천초교 - 카메라 1","37.5696","126.8400","1","2022-12-01"
"강서구","A1006_공항동 1344 - 카메라 1","37.5562","126.8170","1","2022-12-01"
"강서구","A1008_공항동 1362-13 - 카메라 1","37.5546","126.8170","1","2022-12-01"
"강서구","A1014_공항동 663 - 카메라 1","37.5576","126.8148","1","2022-12-01"
"강서구","A1019_등촌1동 643-70","37.5537","126.8491","1","2022-12-01"
"강서구","A1019_등촌1동 643-70 - 카메라 1","37.5547","126.8598","1","2022-12-01"
"강서구","A1024_등촌2동 365-21 - 카메라 1","37.5508","126.8608","1","2022-12-01"
"강서구","A1029_(스쿨존)등명초교 - 카메라 1","37.5609","126.8417","1","2022-12-01"
"강서구","A1031_등촌3동 704-1 등원초등학교 - 카메라 1","37.5603","126.8503","3","2022-12-01"
"강서구","A1032_(스쿨존)유석초 - 카메라 1","37.5607","126.8543","2","2022-12-01"
"강서구","A1034_(스쿨존)수명초교(1/18~) - 카메라 1","37.5527","126.8231","1","2022-12-01"
"강서구","A1046_발산2동 673 - 카메라 1","37.5543","126.8419","1","2022-12-01"
"강서구","A1065_(스쿨존)정곡초교 - 카메라 1","37.5766","126.8183","1","2022-12-01"
"강서구","A1078_화곡2동 452-33 - 카메라 1","37.5344","126.8523","1","2022-12-01"
"강서구","A1080_(유통)화곡2동 854-1 - 카메라 1","37.5294","126.8552","1","2022-12-01"
"강서구","A1081_화곡2동 867-1 - 카메라 1","37.5347","126.8557","1","2022-12-01"
"강서구","A1083_화곡2동 869-42 신정초등학교 - 카메라 1","37.5334","126.8519","1","2022-12-01"
"강서구","A1086_(유통)화곡2동 885-6 - 카메라 1","37.5292","126.8532","1","2022-12-01"
"강서구","A1086_화곡2동885(보조1) - 카메라 1","37.5292","126.8532","1","2022-12-01"
"강서구","A1098_화곡4동 469-1 - 카메라 1","37.5361","126.8557","1","2022-12-01"
"강서구","A1099_화곡4동 504-51 - 카메라 1","37.5362","126.8608","1","2022-12-01"
"강서구","A1101_화곡4동 794-27 - 카메라 1","37.5312","126.8603","1","2022-12-01"
"강서구","A1102_화곡4동 824-13 - 카메라 1","37.5346","126.8580","1","2022-12-01"
"강서구","A1112_우장산동 84-19","37.5467","126.8438","1","2022-12-01"
"강서구","A1113_우장산동 95-53","37.5458","126.8445","2","2022-12-01"
"강서구","A1115_화곡6동 1102-23 - 카메라 1","37.5537","126.8491","1","2022-12-01"
"강서구","A1131_화곡8동 410-199 - 카메라 1","37.5377","126.8487","1","2022-12-01"
"강서구","A1148_화곡본동 61-97 - 카메라 1","37.5417","126.8469","1","2022-12-01"
"강서구","A2007_(도로방범)송정초교 - 카메라 1","37.5628","126.8104","1","2022-12-01"
"강서구","A2008_공항동 60-38 - 카메라 1","37.5585","126.8098","1","2022-12-01"
"강서구","A2038_화곡1동 362-102(보조1) - 카메라 1","37.5337","126.8399","1","2022-12-01"
"강서구","A2038_화곡1동 362-21(보조1) - 카메라 1","37.5337","126.8399","1","2022-12-01"
"강서구","A3003_화곡2동 865-2","37.5331","126.8565","1","2022-12-01"
"강서구","A3022_화곡본동 410-206 - 카메라 1","37.5385","126.8493","1","2022-12-01"
"강서구","A3038_화곡1동 350-28(보조1)","37.5338","126.8443","1","2022-12-01"
"강서구","A5027_(공원)궁산공원 입구","37.5725","126.8389","1","2022-12-01"
"강서구","A5032_(공원)_봉제산공원 뒤쪽 화장실 - 카메라 1","37.5420","126.8553","1","2022-12-01"
"강서구","A5032_(공원)_봉제산공원 뒤쪽 화장실 - 카메라 1","37.5421","126.8545","1","2022-12-01"
"강서구","A6015_화곡3동 1091-8(윤서유치원) - 카메라 1","37.5420","126.8330","1","2022-12-01"
"강서구","A6015_화곡3동 1091-8(윤서유치원) - 카메라 1","37.5446","126.8318","1","2022-12-01"
"강서구","A6016_화곡3동 1091-8 (윤서유치원-보조) - 카메라 1","37.5420","126.8330","1","2022-12-01"
"강서구","A6025_화곡본동 105-194 (선미유치원-보조1) - 카메라 1","37.5397","126.8439","1","2022-12-01"
"강서구","A6028_등촌2동 533-39 (미도유치원) - 카메라 1","37.5505","126.8609","1","2022-12-01"
"강서구","A6029_등촌2동 533-39 (미도유치원-보조) - 카메라 1","37.5505","126.8609","1","2022-12-01"
"강서구","A6031_화곡6동 1131 (등서초교-보조) - 카메라 1","37.5522","126.8541","1","2022-12-01"
"강서구","A6036_화곡6동 981-5 (동그라미어린이집-보조) - 카메라 1","37.5499","126.8488","1","2022-12-01"
"강서구","A6054_옹기골근린공원2","37.5740","126.8207","1","2022-12-01"
"강서구","A7002_화곡1동 343-41 - 카메라 1","37.5307","126.8460","1","2022-12-01"
"강서구","A7017_화곡1동 350-28 (A3038의 보조) - 카메라 1","37.5337","126.8443","1","2022-12-01"
"강서구","A7018_화곡1동 351-25(A3040의 보조) - 카메라 1","37.5346","126.8430","1","2022-12-01"
"강서구","A8021_화곡6동 1119-11 보조 (공항대로46길73) - 카메라 1","37.5529","126.8514","1","2022-12-01"
"강서구","A8034_방화1동 272-57 (구449-5) - 카메라 1","37.5718","126.8178","1","2022-12-01"
"강서구","A8044_화곡본동 98-89 (보조) (까치산로4길31) - 카메라 1","37.5414","126.8449","1","2022-12-01"
"강서구","A8048_발산1동 695-1 (보조) (강서로47마길 37-4) - 카메라 1","37.5515","126.8318","1","2022-12-01"
"강서구","A8049_방화3동 330-15 (보조) (금낭화로24나길 1) - 카메라 1","37.5784","126.8159","1","2022-12-01"
"강서구","B1008_등촌동 82-1_유석초등학교 - 카메라 1","37.5612","126.8532","1","2022-12-01"
"강서구","B1008_유석초등학교","37.5612","126.8532","1","2022-12-01"
"강서구","B1009_보라유치원","37.5633","126.8466","1","2022-12-01"
"강서구","B1009_보라유치원 - 카메라 1","37.5633","126.8466","1","2022-12-01"
"강서구","C111001(A1002)_가양1동 239-1","37.5720","126.8396","2","2022-12-01"
"강서구","C111001(A1002)_가양1동 239-1(보조1) (7시 홍림아트빌라)","37.5720","126.8396","1","2022-12-01"
"강서구","C111002_가양1동 251-6","37.5712","126.8400","2","2022-12-01"
"강서구","C111002_가양1동 251-6 (보조1) (10시 홍림아트빌)","37.5712","126.8400","1","2022-12-01"
"강서구","C111003_가양1동 146-47","37.5693","126.8427","3","2022-12-01"
"강서구","C111003_가양1동 146-47(보조1) (4시 제일제당)","37.5693","126.8427","1","2022-12-01"
"강서구","C111004_가양1동 151-11 상아맨션2차 주변 (강서로76길7)","37.5693","126.8422","2","2022-12-01"
"강서구","C111005_가양1동 1459 동신대아아파트 상가앞 (강서로532)","37.5726","126.8427","2","2022-12-01"
"강서구","C111006_가양1동 1459 동신대아강파트 102동 뒤 산책로 (서로532)(보조1) (4시)","37.5734","126.8444","1","2022-12-01"
"강서구","C111006_가양1동 1459 동신대아파트 102동 뒤 산책로 (강서로532)","37.5734","126.8444","2","2022-12-01"
"강서구","C111007_가양1동 1460 한강타운아파트 111동 앞 산책로 (허준로23)","37.5720","126.8464","2","2022-12-01"
"강서구","C111008_가양1동 246-1","37.5717","126.8389","1","2022-12-01"
"강서구","C111008_가양1동 246-1 - 카메라 1","37.5717","126.8389","1","2022-12-01"
"강서구","C111008_가양1동 246-1(보조1) (8시 스카이국제화물)","37.5717","126.8389","1","2022-12-01"
"강서구","C111009_가양동 30-10 - 카메라 1","37.5672","126.8474","1","2022-12-01"
"강서구","C111009_가양동 30-10(분기-고정1) (8시 양천로연결)","37.5668","126.8464","1","2022-12-01"
"강서구","C111010_가양동 146-58(고정1) (4시)","37.5692","126.8428","1","2022-12-01"
"강서구","C111010_가양동 146-58(고정1) (4시)","37.5692","126.8429","1","2022-12-01"
"강서구","C111011_가양1동 130-3","37.5672","126.8424","2","2022-12-01"
"강서구","C111011_가양1동 130-3(보조1) (7시 대륭사우나)","37.5672","126.8424","1","2022-12-01"
"강서구","C111011_가양1동 130-3(보조2) (1시 양천로큰길)","37.5672","126.8424","1","2022-12-01"
"강서구","C111012_가양1동 231-18","37.5720","126.8403","1","2022-12-01"
"강서구","C111013_가양1동 146-22(고정1) (7시 양천향교역)","37.5684","126.8430","1","2022-12-01"
"강서구","C111013_가양1동 146-22(고정2) (1시 월드메르디앙아파트)","37.5684","126.8430","1","2022-12-01"
"강서구","C111013_가양1동 146-22(고정3) (10시 휴먼빌아파트)","37.5684","126.8430","1","2022-12-01"
"강서구","C111014_가양1동 249-7(고정1)","37.5711","126.8406","1","2022-12-01"
"강서구","C111015_가양1동(마곡동) 7-4(고정1) (12시)","37.5735","126.8376","1","2022-12-01"
"강서구","C111015_가양1동(마곡동) 7-4(고정2) (9시)","37.5735","126.8376","1","2022-12-01"
"강서구","C111015_가양1동(마곡동) 7-4(고정3) (6시)","37.5735","126.8376","1","2022-12-01"
"강서구","C111016_가양1동 251-5(고정1) (3시)","37.5709","126.8402","1","2022-12-01"
"강서구","C111016_가양1동 251-5(고정2) (6시)","37.5709","126.8402","1","2022-12-01"
"강서구","C111017_가양1동 231-9(고정1) (12시 1시 사이)","37.5715","126.8406","1","2022-12-01"
"강서구","C111018 양천향교역 6번출구 고정1","37.5678","126.8415","1","2022-12-01"
"강서구","C111018 양천향교역 6번출구 고정2","37.5678","126.8415","1","2022-12-01"
"강서구","C111019 가양동 1485-5 고정1 (11시)","37.5634","126.8613","1","2022-12-01"
"강서구","C111019 가양동 1485-5 고정2 (7시)","37.5634","126.8613","1","2022-12-01"
"강서구","C111019 가양동 1485-5 고정3 (5시)","37.5634","126.8613","1","2022-12-01"
"강서구","C111020 가양동 1482 고정1 (5시)","37.5625","126.8583","1","2022-12-01"
"강서구","C111020 가양동 1482 고정2 (1시)","37.5625","126.8583","1","2022-12-01"
"강서구","C111020 가양동 1482 고정3 (10시)","37.5625","126.8583","1","2022-12-01"
"강서구","C111021 증미역 연결통로 고정1 (1시)","37.5592","126.8616","1","2022-12-01"
"강서구","C111021 증미역 연결통로 고정2 (7시)","37.5592","126.8616","1","2022-12-01"
"강서구","C111022 가양동 1485-5 고정1","37.5621","126.8636","1","2022-12-01"
"강서구","C111022 가양동 1485-5 고정2","37.5621","126.8636","1","2022-12-01"
"강서구","C111023_가양동 1458-14_PTZ","37.5699","126.8452","1","2022-12-01"
"강서구","C111023_가양동 1458-14_보조1 (4시)","37.5699","126.8452","1","2022-12-01"
"강서구","C111023_가양동 1458-14_보조2 (10시)","37.5699","126.8452","1","2022-12-01"
"강서구","C111024_마곡동 329-7_PTZ","37.5704","126.8236","1","2022-12-01"
"강서구","C111024_마곡동 329-7_보조1 (11시)","37.5704","126.8236","1","2022-12-01"
"강서구","C111024_마곡동 329-7_보조2","37.5704","126.8236","1","2022-12-01"
"강서구","C111024_마곡동 329-7_보조3 (7시)","37.5704","126.8236","1","2022-12-01"
"강서구","C111025_가양1동 273-4","37.5708","126.8392","1","2022-12-01"
"강서구","C111025_가양1동 273-4_(고정1) (1시)","37.5708","126.8392","1","2022-12-01"
"강서구","C111025_가양1동 273-4_(고정2) (9시)","37.5708","126.8392","1","2022-12-01"
"강서구","C121001_가양2동 1481 가양5단지 501동 앞(고정1) (1시 대림경동아파트)","37.5646","126.8533","1","2022-12-01"
"강서구","C121001_가양2동 1481 가양5단지 501동 앞(고정2) (7시 가양역1번출구)","37.5646","126.8533","1","2022-12-01"
"강서구","C121002_가양2동 1480-4(고정1) (1시 가양5단지아파트 515동)","37.5627","126.8533","1","2022-12-01"
"강서구","C121002_가양2동 1480-4(고정2) (10시 영보빌딩)","37.5627","126.8533","1","2022-12-01"
"강서구","C121002_가양2동 1480-4(고정3) (7시 가양역)","37.5627","126.8533","1","2022-12-01"
"강서구","C121003_가양2동 1470(고정1) (5시 대림경동아파트)","37.5689","126.8518","1","2022-12-01"
"강서구","C121003_가양2동 1470(고정2) (7시 허준박물관)","37.5688","126.8518","1","2022-12-01"
"강서구","C121003_가양2동 1470(고정3) (10시 영등포공업고등학교)","37.5688","126.8518","1","2022-12-01"
"강서구","C121004_가양2동 1479(고정1) (5시 KB국민은행)","37.5640","126.8510","1","2022-12-01"
"강서구","C121004_가양2동 1479(고정2) (12시 분기-고정방향)","37.5640","126.8510","1","2022-12-01"
"강서구","C121004_가양2동 1479(분기-고정1) (5시 시드프라자)","37.5643","126.8511","1","2022-12-01"
"강서구","C131001_가양동 1484 가양초등학교(가양프라자 건너편)","37.5612","126.8597","1","2022-12-01"
"강서구","C131001_가양동 1484(고정1) 가양초등학교(1시 가양프라자 건너편)","37.5612","126.8597","1","2022-12-01"
"강서구","C131001_가양동 1484(고정1) 가양초등학교(가양프라자 건너편)","37.5612","126.8597","1","2022-12-01"
"강서구","C131002_가양3동 1482(가양역4번출구)(고정1) (7시 가양역4번출구)","37.5618","126.8558","1","2022-12-01"
"강서구","C131002_가양3동 1482(가양역4번출구)(고정2) (4시 경서중학교)","37.5618","126.8558","1","2022-12-01"
"강서구","C131002_가양3동 1482(가양역4번출구)(고정3) (1시 올림픽대로)","37.5618","126.8558","1","2022-12-01"
"강서구","C131004_가양3동 1488-10(고정1) (10시 강서구청 가양동별관)","37.5605","126.8605","1","2022-12-01"
"강서구","C131004_가양3동 1488-10(고정2) (1시 가양7단지 102동)","37.5605","126.8605","1","2022-12-01"
"강서구","C131005_가양3동 1492-1(고정1) (5시)","37.5598","126.8640","1","2022-12-01"
"강서구","C131005_가양3동 1492-1(고정2) (1시)","37.5598","126.8640","1","2022-12-01"
"강서구","C131005_가양3동 1492-1(고정3) (10시)","37.5598","126.8640","1","2022-12-01"
"강서구","C131007_가양3동 1482-2_PTZ","37.5632","126.8568","1","2022-12-01"
"강서구","C141001(A1005)_공항동 1338-1","37.5545","126.8152","1","2022-12-01"
"강서구","C141001(A1005)_공항동 1338-1(보조1) (9시 센트럴빌딩)","37.5545","126.8152","1","2022-12-01"
"강서구","C141002(A1006)_공항동 1344","37.5561","126.8170","1","2022-12-01"
"강서구","C141003(A1007)_공항동 1357","37.5556","126.8189","2","2022-12-01"
"강서구","C141004(A1008)_공항동 1362-13","37.5546","126.8170","1","2022-12-01"
"강서구","C141004(A1008)_공항동 1362-13(보조1) (6시 방화대로와 발산로 사이길 연결)","37.5546","126.8170","1","2022-12-01"
"강서구","C141005_공항동 18-23","37.5633","126.8119","2","2022-12-01"
"강서구","C141006_공항동 42-10","37.5605","126.8108","1","2022-12-01"
"강서구","C141006_공항동 42-10 - 카메라 1","37.5605","126.8108","1","2022-12-01"
"강서구","C141006_공항동 42-10(보조1) (3시 송정공원)","37.5605","126.8108","1","2022-12-01"
"강서구","C141007_공항동 51-2","37.5599","126.8092","1","2022-12-01"
"강서구","C141007_공항동 51-2","37.5599","126.8093","1","2022-12-01"
"강서구","C141007_공항동 51-2(보조1) (5시 공항동 67-10 방향)","37.5599","126.8093","1","2022-12-01"
"강서구","C141008(A1012)_공항동 55-135","37.5585","126.8122","2","2022-12-01"
"강서구","C141008(A1012)_공항동 55-135(보조1) (3시 남부순환로11가길 연결)","37.5585","126.8122","1","2022-12-01"
"강서구","C141009(A1014)_공항동 663","37.5576","126.8148","1","2022-12-01"
"강서구","C141010(A1015)_공항동 672-2","37.5560","126.8157","1","2022-12-01"
"강서구","C141010(A1015)_공항동 672-2(보조1) (9시 화인빌리지)","37.5561","126.8158","1","2022-12-01"
"강서구","C141011(A1016)_공항동 677","37.5549","126.8137","3","2022-12-01"
"강서구","C141011(A1016)_공항동 677(보조1) (2시 현대힐스빌)","37.5549","126.8137","1","2022-12-01"
"강서구","C141012(A1056)_공항동 2-5","37.5642","126.8151","2","2022-12-01"
"강서구","C141013(A2006)_공항동 14-70","37.5620","126.8137","2","2022-12-01"
"강서구","C141014(A2008)_공항동 60-38","37.5585","126.8098","3","2022-12-01"
"강서구","C141014(A2008)_공항동 60-38(보조1) (12시 밤비니유치원)","37.5585","126.8098","1","2022-12-01"
"강서구","C141015(A4039)_공항동 682-11","37.5558","126.8141","2","2022-12-01"
"강서구","C141016(A4040)_공항동 22-170(공항대로 7길 11)","37.5620","126.8123","1","2022-12-01"
"강서구","C141017(A4041)_공항동 14-258","37.5627","126.8145","2","2022-12-01"
"강서구","C141018[경찰방범]_공항동 66-96","37.5590","126.8086","1","2022-12-01"
"강서구","C141019_공항동 52-16 - 카메라 1","37.5600","126.8100","1","2022-12-01"
"강서구","C141019_공항동 52-16(보조1) (2시 송정제이빌아파트)","37.5600","126.8100","1","2022-12-01"
"강서구","C141020_공항동 40-33 - 카메라 1","37.5587","126.8129","1","2022-12-01"
"강서구","C141021_공항동 34-71 - 카메라 1","37.5605","126.8129","1","2022-12-01"
"강서구","C141022_공항동 45-88(고정1) (7시 공항대로)","37.5620","126.8101","1","2022-12-01"
"강서구","C141022_공항동 45-88(고정1) (7시 공항대로)","37.5621","126.8101","1","2022-12-01"
"강서구","C141023_공항동 18-30","37.5638","126.8128","1","2022-12-01"
"강서구","C141023_공항동 18-30(보조1) (5시 공항교당)","37.5638","126.8128","1","2022-12-01"
"강서구","C141024_공항동 651-6","37.5584","126.8145","1","2022-12-01"
"강서구","C141024_공항동 651-6(보조1) (9시-10시 단이슬어린이집)","37.5584","126.8145","1","2022-12-01"
"강서구","C141025_공항동 61-67","37.5579","126.8092","1","2022-12-01"
"강서구","C141025_공항동 61-67(남부순환로5길 2(보조1)(3시)","37.5579","126.8092","1","2022-12-01"
"강서구","C141026_공항동 41-82(고정1) (3시 구립동부경로당)","37.5595","126.8123","1","2022-12-01"
"강서구","C141027_공항동 14-17","37.5631","126.8141","1","2022-12-01"
"강서구","C141028_공항동 34-39","37.5604","126.8122","1","2022-12-01"
"강서구","C141028_공항동 34-39(보조1) (9시 공항대로4가길 22-4)","37.5604","126.8122","1","2022-12-01"
"강서구","C141029_공항동 34-73(고정1) (11시 송정역)","37.5605","126.8126","1","2022-12-01"
"강서구","C141029_공항동 34-73(고정2) (5시 공항대로10가길연결)","37.5605","126.8126","1","2022-12-01"
"강서구","C141030_공항동 691(고정1) (6시 남부순환로)","37.5563","126.8122","1","2022-12-01"
"강서구","C141030_공항동 691(고정2) (12시 공항동 주민센타)","37.5563","126.8122","1","2022-12-01"
"강서구","C141030_공항동 691(고정3) (3시 장미공원)","37.5563","126.8122","1","2022-12-01"
"강서구","C141031_공항동 14-4 공항중학교(고정1)(12시 신방화역 7번출구)","37.5629","126.8163","1","2022-12-01"
"강서구","C141031_공항동 14-4 공항중학교(고정2)(6시 방화대로와 공행대로 교차 삼거리)","37.5629","126.8163","1","2022-12-01"
"강서구","C141032_공항동 679-2(고정1) (12시 방화대로5라길24방향)","37.5551","126.8146","1","2022-12-01"
"강서구","C141033_공항동 14-101(고정1) (12시 공항동 2-5 방향)","37.5631","126.8152","1","2022-12-01"
"강서구","C141033_공항동 14-101(고정2) (9시 공항동 14-70 방향)","37.5631","126.8152","1","2022-12-01"
"강서구","C141033_공항동 14-101(고정3) (3시 방화대로)","37.5631","126.8152","1","2022-12-01"
"강서구","C141034_공항동 36-44(고정1) (9시 공항대로8길 24-3 방향)","37.5599","126.8128","1","2022-12-01"
"강서구","C141034_공항동 36-44(고정2) (12시 공항동 34-71 방향)","37.5599","126.8128","1","2022-12-01"
"강서구","C141034_공항동 36-44(고정3) (7시 승리아파트)","37.5599","126.8128","1","2022-12-01"
"강서구","C141035_공항동 60-142(고정1) (6시 흰돌주택)","37.5581","126.8103","1","2022-12-01"
"강서구","C141035_공항동 60-142(고정2) (2시 송정로연결)","37.5581","126.8103","1","2022-12-01"
"강서구","C141036_공항동 40-8(고정1) (11시 공항동 41-82 방향)","37.5591","126.8134","1","2022-12-01"
"강서구","C141036_공항동 40-8(고정2) (6시 예지유치원)","37.5591","126.8134","1","2022-12-01"
"강서구","C141036_공항동 40-8(고정3) (5시 공항동 651-6호 방향)","37.5591","126.8134","1","2022-12-01"
"강서구","C141037_공항동 675-10(고정1) (12시 공항동 663 방향)","37.5558","126.8148","1","2022-12-01"
"강서구","C141037_공항동 675-10(고정2) (6시 송정중학교)","37.5558","126.8148","1","2022-12-01"
"강서구","C141038_공항동 12-3(고정1) (6시 공항대로연결)","37.5626","126.8163","1","2022-12-01"
"강서구","C141039_공항동 61-61(고정1) (6시 공항동 61-67 방향)","37.5584","126.8093","1","2022-12-01"
"강서구","C141040_공항동 23-3(고정1)(9시)","37.5618","126.8131","1","2022-12-01"
"강서구","C141040_공항동 23-3(고정2)(6시)","37.5619","126.8131","1","2022-12-01"
"강서구","C141041_공항동 22-85(고정1) (1시 스카이아파트)","37.5625","126.8130","1","2022-12-01"
"강서구","C141041_공항동 22-85(고정2) (10시 동서베스트빌)","37.5626","126.8130","1","2022-12-01"
"강서구","C141041_공항동 22-85(고정3) (7시 해봉빌딩)","37.5625","126.8131","1","2022-12-01"
"강서구","C141042_공항동 67-48(고정1) (12시 경동그린빌)","37.5591","126.8094","1","2022-12-01"
"강서구","C141042_공항동 67-48(고정2) (6시 행운빌라)","37.5591","126.8094","1","2022-12-01"
"강서구","C141043_공항동 672-11(고정1)(6시)","37.5549","126.8160","1","2022-12-01"
"강서구","C141043_공항동 672-11(고정2)(9시)","37.5549","126.8160","1","2022-12-01"
"강서구","C141043_공항동 672-11(고정3)(12시)","37.5549","126.8160","1","2022-12-01"
"강서구","C141043_공항동 672-11(고정4)(3시)","37.5549","126.8160","1","2022-12-01"
"강서구","C141044_공항동 18-41(고정1)","37.5632","126.8125","1","2022-12-01"
"강서구","C141044_공항동 18-41(고정2)","37.5632","126.8125","1","2022-12-01"
"강서구","C141044_공항동 18-41(고정3)","37.5634","126.8127","1","2022-12-01"
"강서구","C141045_공항동 12-65(고정1)","37.5618","126.8155","1","2022-12-01"
"강서구","C141045_공항동 12-65(고정2)","37.5618","126.8155","1","2022-12-01"
"강서구","C141046_공항동 736(고정1)(12시)","37.5563","126.8134","1","2022-12-01"
"강서구","C141046_공항동 736(고정2)(6시)","37.5563","126.8134","1","2022-12-01"
"강서구","C141046_공항동 736(고정3)(3시)","37.5564","126.8136","1","2022-12-01"
"강서구","C141046_공항동 736(고정4)(9시)","37.5564","126.8136","1","2022-12-01"
"강서구","C141047_공항동 12-6(고정1)(2시)","37.5621","126.8147","1","2022-12-01"
"강서구","C141047_공항동 12-6(고정2)(8시)","37.5621","126.8147","1","2022-12-01"
"강서구","C141048_공항동 12-95(고정1)(9시)","37.5622","126.8146","1","2022-12-01"
"강서구","C141049 공항동 694-1 고정1 (12시)","37.5585","126.8134","1","2022-12-01"
"강서구","C141049 공항동 694-1 고정2 (6시)","37.5585","126.8134","1","2022-12-01"
"강서구","C141049 공항동 694-1 고정3 (9시)","37.5585","126.8136","1","2022-12-01"
"강서구","C141049 공항동 694-1 고정4 (3시)","37.5585","126.8136","1","2022-12-01"
"강서구","C141050 공항동 14-80 고정1 (7시)","37.5617","126.8136","1","2022-12-01"
"강서구","C141050 공항동 14-80 고정2 (1시)","37.5617","126.8136","1","2022-12-01"
"강서구","C141051 공항동 1360-5 고정1 (1시)","37.5545","126.8185","1","2022-12-01"
"강서구","C141051 공항동 1360-5 고정2 (7시)","37.5545","126.8185","1","2022-12-01"
"강서구","C141051 공항동 1360-5 고정3 (10시)","37.5545","126.8185","1","2022-12-01"
"강서구","C141052 공항동 677-10 고정1 (3시)","37.5548","126.8147","1","2022-12-01"
"강서구","C141052 공항동 677-10 고정2 (9시)","37.5548","126.8147","1","2022-12-01"
"강서구","C141053_공항동 55-188_고정1 (9시)","37.5579","126.8133","1","2022-12-01"
"강서구","C141054_공항동 665-4 _고정1 (6시)","37.5571","126.8144","1","2022-12-01"
"강서구","C141054_공항동 665-4 _고정2 (6시)","37.5571","126.8144","1","2022-12-01"
"강서구","C151001(A1018)_등촌1동 636-9","37.5560","126.8608","2","2022-12-01"
"강서구","C151001(A1018)_등촌1동 636-9(보조1) (1시 화곡로68길 연결)","37.5560","126.8608","1","2022-12-01"
"강서구","C151002(A1019)_등촌1동 643-70","37.5547","126.8598","2","2022-12-01"
"강서구","C151002(A1019)_등촌1동 643-70(보조1) (9시 공항대로53나길 15)","37.5547","126.8598","1","2022-12-01"
"강서구","C151003(A1020)_등촌1동 646-1","37.5541","126.8630","2","2022-12-01"
"강서구","C151003(A1020)_등촌1동646-1(보조1) (7시 백석초교)","37.5541","126.8630","1","2022-12-01"
"강서구","C151004_등촌1동 654-4","37.5556","126.8568","1","2022-12-01"
"강서구","C151004_등촌1동 654-4","37.5557","126.8568","1","2022-12-01"
"강서구","C151004_등촌1동 654-4(보조1) (5시 참사랑교회)","37.5556","126.8568","1","2022-12-01"
"강서구","C151005(A2009)_등촌1동 637-12","37.5570","126.8585","2","2022-12-01"
"강서구","C151006(A2010)_등촌1동 647-32","37.5527","126.8645","2","2022-12-01"
"강서구","C151006(A2010)_등촌1동 647-32(보조1) (10시 공항대로59길 연결)","37.5527","126.8645","1","2022-12-01"
"강서구","C151007(A2011)_등촌1동 654-42","37.5558","126.8559","2","2022-12-01"
"강서구","C151008(A4002)_등촌1동 653-8","37.5552","126.8585","2","2022-12-01"
"강서구","C151008(A4002)_등촌1동 653-8(보조1) 8시(서울영광교회). 10시(동양텔레콤)","37.5552","126.8585","1","2022-12-01"
"강서구","C151009(A4004)_등촌1동 656-37","37.5569","126.8553","1","2022-12-01"
"강서구","C151009(A4004)_등촌1동 656-37(보조1) (10시 화곡로연결)","37.5569","126.8553","1","2022-12-01"
"강서구","C151010(A8008)_등촌1동 635-1 (공항대로59길50)","37.5557","126.8626","2","2022-12-01"
"강서구","C151011(A8009)_등촌1동 636-30 (화곡로66길145-15)","37.5555","126.8617","2","2022-12-01"
"강서구","C151012(A8010)_등촌1동 654-53 (공항대로49길12-4)","37.5552","126.8564","2","2022-12-01"
"강서구","C151012_등촌1동 654-53(공항대로49길 12-4)(보조1)(5시)","37.5552","126.8564","1","2022-12-01"
"강서구","C151013_등촌1동 647-24(고정1)(4시)","37.5531","126.8638","1","2022-12-01"
"강서구","C151014_등촌동 654-58(고정1) (1시 화곡로64길 89앞 삼거리)","37.5552","126.8576","2","2022-12-01"
"강서구","C151014_등촌동 654-58(고정2) (10시 GS25 앞 삼거리)","37.5552","126.8576","1","2022-12-01"
"강서구","C151015_등촌동 712 (고정1) (10시 등촌1동 637-12 방향)","37.5561","126.8601","3","2022-12-01"
"강서구","C151016_등촌1동 633-17","37.5543","126.8652","1","2022-12-01"
"강서구","C151017(A4003)_등촌1동 646-10","37.5535","126.8629","1","2022-12-01"
"강서구","C151018(A8005)_등촌1동 653-9","37.5550","126.8578","1","2022-12-01"
"강서구","C151019_등촌1동 633-38(고정1) (10시 투웨니퍼스트 5동-7동 사이)","37.5535","126.8657","1","2022-12-01"
"강서구","C151019_등촌1동 633-38(고정2) (1시 보람더하임 102동 뒤쪽)","37.5535","126.8657","1","2022-12-01"
"강서구","C151019_등촌1동 633-38(고정3) (7시 동우빌딩앞 삼거리)","37.5535","126.8657","1","2022-12-01"
"강서구","C151021_등촌1동 651(고정1) (11시 아이리스빌딩)","37.5540","126.8600","1","2022-12-01"
"강서구","C151021_등촌1동 651(고정2) (1시 해피아이리스)","37.5544","126.8600","1","2022-12-01"
"강서구","C151021_등촌1동 651(고정3) (5시 백석초등학교)","37.5540","126.8600","1","2022-12-01"
"강서구","C151021_등촌1동 651(고정4) (7시 아이리스빌딩)","37.5544","126.8600","1","2022-12-01"
"강서구","C151022_등촌1동 654-13(고정1) (10시 보람아파트 관리사무소)","37.5558","126.8575","1","2022-12-01"
"강서구","C151022_등촌1동 654-13(고정2) (4시 칠성빌딩)","37.5558","126.8575","1","2022-12-01"
"강서구","C151023_등촌1동 644-31(고정1) (7시 공항대로)","37.5537","126.8608","1","2022-12-01"
"강서구","C151023_등촌1동 644-31(고정2) (1시 등마루어린이집)","37.5537","126.8608","1","2022-12-01"
"강서구","C151024_등촌1동 654-10(고정1)(7시)","37.5558","126.8573","1","2022-12-01"
"강서구","C151025_등촌1동 648-6(고정1)(4시)","37.5516","126.8654","1","2022-12-01"
"강서구","C151025_등촌1동 648-6(고정2)(7시)","37.5516","126.8654","1","2022-12-01"
"강서구","C151025_등촌1동 648-6(고정3)(1시)","37.5516","126.8654","1","2022-12-01"
"강서구","C151025_등촌1동 648-6(고정4)(10시)","37.5516","126.8654","1","2022-12-01"
"강서구","C151026_등촌1동 654-19(고정1)(1시)","37.5550","126.8570","1","2022-12-01"
"강서구","C151026_등촌1동 654-19(고정2)(9시)","37.5550","126.8570","1","2022-12-01"
"강서구","C151027_등촌1동 643-12(고정1)(5시)","37.5552","126.8594","1","2022-12-01"
"강서구","C151027_등촌1동 643-12(고정2)(1시)","37.5552","126.8594","1","2022-12-01"
"강서구","C151028_등촌1동 643-44(고정1)(11시)","37.5551","126.8590","1","2022-12-01"
"강서구","C151028_등촌1동 643-44(고정2)(5시)","37.5551","126.8590","1","2022-12-01"
"강서구","C151029_등촌1동 628-11(고정1)(10시)","37.5604","126.8562","1","2022-12-01"
"강서구","C151029_등촌1동 628-11(고정2)(7시)","37.5604","126.8562","1","2022-12-01"
"강서구","C151029_등촌1동 628-11(고정3)(5시)","37.5604","126.8562","1","2022-12-01"
"강서구","C161001(A1017)_등촌2동 529-16","37.5502","126.8592","1","2022-12-01"
"강서구","C161002(A1023)_등촌2동 365-105","37.5508","126.8591","1","2022-12-01"
"강서구","C161002(A1023)_등촌2동 365-105(보조1) (5시 로양펠리스)","37.5508","126.8591","1","2022-12-01"
"강서구","C161003(A1024)_등촌2동 365-21","37.5508","126.8608","1","2022-12-01"
"강서구","C161003(A1024)_등촌2동 365-21(보조1) (8시 미주그린빌라)","37.5508","126.8608","1","2022-12-01"
"강서구","C161005_등촌2동 522-1","37.5474","126.8613","1","2022-12-01"
"강서구","C161005_등촌로 39바길 26(등촌2동 522-1) - 카메라 1","37.5474","126.8613","1","2022-12-01"
"강서구","C161005_등촌로 39바길 26(보조1) (7시 등촌펠리스)","37.5474","126.8613","1","2022-12-01"
"강서구","C161006(A1027)_등촌2동 533-66","37.5510","126.8621","1","2022-12-01"
"강서구","C161006(A1027)_등촌2동 533-66","37.5511","126.8621","1","2022-12-01"
"강서구","C161006(A1027)_등촌2동533-66(보조1) (7시 미도유치원)","37.5511","126.8621","1","2022-12-01"
"강서구","C161007(A2012)_등촌2동 365-8","37.5514","126.8606","2","2022-12-01"
"강서구","C161007(A2012)_등촌2동 365-8(보조1) (1시 공항대로연결)","37.5514","126.8606","1","2022-12-01"
"강서구","C161008(A2014)_등촌2동 522-23","37.5464","126.8603","2","2022-12-01"
"강서구","C161008(A2014)_등촌2동 522-23(보조1) (5시 성산중앙교회)","37.5464","126.8603","1","2022-12-01"
"강서구","C161008(A2014)_등촌2동 522-23(보조2) (11시 등촌초교)","37.5464","126.8603","1","2022-12-01"
"강서구","C161009(A2015)_등촌2동 565-20","37.5380","126.8628","2","2022-12-01"
"강서구","C161010(A2016)_등촌2동 574-6","37.5376","126.8614","2","2022-12-01"
"강서구","C161012(A4006)_등촌2동 365-115","37.5503","126.8577","6","2022-12-01"
"강서구","C161012(A4006)_등촌2동 365-115(보조1) (2시 원투빌라)","37.5503","126.8577","1","2022-12-01"
"강서구","C161013(A6041)_등촌2동 567-5","37.5362","126.8627","2","2022-12-01"
"강서구","C161013(A6041)_등촌2동 567-5(보조1) (6시 숲사랑어린이집)","37.5362","126.8627","1","2022-12-01"
"강서구","C161014[경찰방범]_등촌2동 365-86","37.5510","126.8584","1","2022-12-01"
"강서구","C161015(A8012)_등촌2동 527-3 (등촌로51길14)","37.5491","126.8622","2","2022-12-01"
"강서구","C161016_등촌2동 515-8","37.5468","126.8573","1","2022-12-01"
"강서구","C161016_등촌2동 515-8 - 카메라 1","37.5468","126.8573","1","2022-12-01"
"강서구","C161016_등촌2동 515-8(보조1) (6시 등촌파크빌라)","37.5468","126.8573","1","2022-12-01"
"강서구","C161017_등촌동 532-1","37.5505","126.8625","1","2022-12-01"
"강서구","C161017_등촌동 532-1(보조1) (7시 태진아파트)","37.5505","126.8625","1","2022-12-01"
"강서구","C161017_등촌동 532-1(보조2) (1시 공항대로 연결)","37.5505","126.8625","1","2022-12-01"
"강서구","C161018_등촌2동 520-6 - 카메라 1","37.5480","126.8606","1","2022-12-01"
"강서구","C161018_등촌2동 520-6(보조1) (2시)","37.5480","126.8606","1","2022-12-01"
"강서구","C161019(A8011)_등촌2동 514-43 (등촌로39가길27)","37.5454","126.8591","2","2022-12-01"
"강서구","C161020_등촌2동 507-11","37.5495","126.8628","1","2022-12-01"
"강서구","C161022_등촌2동 510-7(고정1) (7시 영일고등학교)","37.5478","126.8624","1","2022-12-01"
"강서구","C161022_등촌2동 510-7(고정2) (1시 등촌로 51가길 33앞 삼거리)","37.5478","126.8624","1","2022-12-01"
"강서구","C161022_등촌2동 510-7(고정3) (3시 등촌로큰길)","37.5478","126.8624","1","2022-12-01"
"강서구","C161023_등촌2동 365-101(고정1) (6시)","37.5507","126.8585","1","2022-12-01"
"강서구","C161024_등촌2동 518-24(고정1) (11시 씨지아름채)","37.5464","126.8590","1","2022-12-01"
"강서구","C161025_등촌2동 366-10(고정1) (4시 태진아름아파트 103동)","37.5494","126.8608","1","2022-12-01"
"강서구","C161025_등촌2동 366-10(고정2) (10시 태진아파트101동)","37.5494","126.8608","1","2022-12-01"
"강서구","C161026_등촌2동 719(고정1) (1시 영일고등학교)","37.5460","126.8618","1","2022-12-01"
"강서구","C161026_등촌2동 719(고정2) (7시 등촌아이파크아파트 101동)","37.5460","126.8618","1","2022-12-01"
"강서구","C161027_등촌2동 533-7(고정1) (4시 등촌역 7번출구)","37.5511","126.8628","1","2022-12-01"
"강서구","C161027_등촌2동 533-7(고정2) (1시 공항대로)","37.5511","126.8628","1","2022-12-01"
"강서구","C161028_등촌2동 530-17(고정1) (7시 영일고등학교)","37.5497","126.8609","1","2022-12-01"
"강서구","C161028_등촌2동 530-17(고정2) (4시 등촌보람아파트)","37.5497","126.8609","1","2022-12-01"
"강서구","C161028_등촌2동 530-17(고정3)","37.5497","126.8609","1","2022-12-01"
"강서구","C161029_등촌2동 524-4(고정1) (10시 등촌로예원교회)","37.5456","126.8616","1","2022-12-01"
"강서구","C161029_등촌2동 524-4(고정2) (4시 등촌로)","37.5456","126.8616","1","2022-12-01"
"강서구","C161029_등촌2동 524-4(고정3) (1시 영일고등학교)","37.5457","126.8617","1","2022-12-01"
"강서구","C161030_등촌2동 526-33(고정1) (9시)","37.5497","126.8591","1","2022-12-01"
"강서구","C161030_등촌2동 526-33(고정2) (4시)","37.5497","126.8591","1","2022-12-01"
"강서구","C161030_등촌2동 526-33(고정3) (1시)","37.5497","126.8591","1","2022-12-01"
"강서구","C161031_등촌2동 518-24(고정1) (9시)","37.5464","126.8590","1","2022-12-01"
"강서구","C161031_등촌2동 518-24(고정2) (3시)","37.5464","126.8590","1","2022-12-01"
"강서구","C161033_등촌2동 568-28(고정1) (12시)","37.5365","126.8624","1","2022-12-01"
"강서구","C161033_등촌2동 568-28(고정2) (6시)","37.5365","126.8624","1","2022-12-01"
"강서구","C161034_등촌2동 509-1(고정1) (12시)","37.5493","126.8634","1","2022-12-01"
"강서구","C161034_등촌2동 509-1(고정2) (6시)","37.5493","126.8634","1","2022-12-01"
"강서구","C161036_등촌2동 513-2(고정1) (3시)","37.5453","126.8616","1","2022-12-01"
"강서구","C161037_등촌2동 365-46(고정1) (9시)","37.5512","126.8598","1","2022-12-01"
"강서구","C161037_등촌2동 365-46(고정2) (6시)","37.5512","126.8598","1","2022-12-01"
"강서구","C161038_등촌2동 514-62(고정1) (7시)","37.5458","126.8609","1","2022-12-01"
"강서구","C161040 등촌동 산 88 고정1 (6시)","37.5393","126.8630","1","2022-12-01"
"강서구","C161040 등촌동 산 88 고정2 (3시)","37.5393","126.8630","1","2022-12-01"
"강서구","C161040 등촌동 산 88 고정3 (12시)","37.5393","126.8630","1","2022-12-01"
"강서구","C161041_등촌동 516-25_PTZ","37.5460","126.8597","1","2022-12-01"
"강서구","C161041_등촌동 516-25_보조1","37.5460","126.8597","1","2022-12-01"
"강서구","C161041_등촌동 516-25_보조1 (1시)","37.5338","126.8623","1","2022-12-01"
"강서구","C161041_등촌동 516-25_보조1 (1시)","37.5460","126.8597","1","2022-12-01"
"강서구","C161041_등촌동 516-25_보조2 (11시)","37.5460","126.8597","1","2022-12-01"
"강서구","C161041_등촌동 516-25_보조3 (8시)","37.5460","126.8597","1","2022-12-01"
"강서구","C171001_등촌3동 698(고정1) (10시 등촌고등학교)","37.5610","126.8468","1","2022-12-01"
"강서구","C171001_등촌3동 698(고정2) (5시 등원초등학교)","37.5611","126.8468","1","2022-12-01"
"강서구","C171002_등촌3동 688-3(고정1) (10시 그랜드마트)","37.5606","126.8400","1","2022-12-01"
"강서구","C171002_등촌3동 688-3(고정2) (4시 등명초등학교)","37.5606","126.8400","1","2022-12-01"
"강서구","C171003_등촌3동 687-2(고정1) (7시 등촌주공 3단지)","37.5639","126.8411","1","2022-12-01"
"강서구","C171004_등촌3동 662-16(고정1) (4시 경복여자고등학교)","37.5578","126.8492","1","2022-12-01"
"강서구","C171004_등촌3동 662-16(고정2) (1시 등촌주공 11단지 1101동)","37.5579","126.8490","1","2022-12-01"
"강서구","C171004_등촌3동 662-16(고정3) (7시 성창빌딩)","37.5579","126.8490","1","2022-12-01"
"강서구","C171004_등촌3동 662-16(고정4) (10시 등촌동 우체국)","37.5578","126.8492","1","2022-12-01"
"강서구","C171005(A2017)_등촌3동 659","37.5583","126.8493","2","2022-12-01"
"강서구","C171005(A2017)_등촌3동 659","37.5583","126.8494","1","2022-12-01"
"강서구","C171006_등촌3동 667-16","37.5587","126.8435","1","2022-12-01"
"강서구","C171006_등촌3동 667-16 - 카메라 1","37.5587","126.8435","1","2022-12-01"
"강서구","C171007(A4007)_등촌3동 683 (강서로 68길 12)","37.5665","126.8417","2","2022-12-01"
"강서구","C171007(A4007)_등촌3동 683 (강서로 68길 12)(보조1) (7시 등촌근린공원)","37.5665","126.8417","1","2022-12-01"
"강서구","C171007(A4007)_등촌3동 683 (강서로 68길 12)(보조2) (1시 수라간)","37.5665","126.8417","1","2022-12-01"
"강서구","C171008(A8013)_등촌3동 131 경복여고 정문 (화곡로375)","37.5577","126.8507","2","2022-12-01"
"강서구","C171009(A8014)_등촌3동 131 경복여고 후문 (화곡로375)","37.5587","126.8517","2","2022-12-01"
"강서구","C171009(A8014)_등촌3동 131 경복여고 후문(보조1)(1시)","37.5587","126.8517","1","2022-12-01"
"강서구","C171010_등촌동 661-4 - 카메라 1","37.5584","126.8473","1","2022-12-01"
"강서구","C171011_등촌3동696-1(고정1) (5시 등촌진로아파트 108동앞)","37.5599","126.8454","1","2022-12-01"
"강서구","C171011_등촌3동696-1(고정2) (1시 등촌주공5단지 502동)","37.5599","126.8454","1","2022-12-01"
"강서구","C171012_등촌3동 681-1(고정1)","37.5649","126.8414","1","2022-12-01"
"강서구","C171012_등촌3동 681-1(고정1) (1시 양천향교역)","37.5650","126.8414","1","2022-12-01"
"강서구","C171012_등촌3동 681-1(고정2)","37.5649","126.8414","1","2022-12-01"
"강서구","C171012_등촌3동 681-1(고정2) (7시 등촌근린공원)","37.5650","126.8414","1","2022-12-01"
"강서구","C171013_등명중학교 정문(고정1)","37.5598","126.8437","1","2022-12-01"
"강서구","C171013_등명중학교 정문(고정1) (7시 등촌성원아파트)","37.5599","126.8438","2","2022-12-01"
"강서구","C171013_등명중학교 정문(고정2)","37.5598","126.8437","1","2022-12-01"
"강서구","C171013_등명중학교 정문(고정2) (1시 등촌고등학교)","37.5599","126.8438","1","2022-12-01"
"강서구","C171014_등촌고등학교 정문(고정1)","37.5627","126.8454","1","2022-12-01"
"강서구","C171014_등촌고등학교 정문(고정1) (7시 등촌주공4.5단지앞 사거리)","37.5627","126.8454","1","2022-12-01"
"강서구","C171014_등촌고등학교 정문(고정2)","37.5627","126.8454","1","2022-12-01"
"강서구","C171014_등촌고등학교 정문(고정2) (1시 보라유치원)","37.5627","126.8454","1","2022-12-01"
"강서구","C171015_등촌3동 700(고정1)(1시)","37.5590","126.8457","1","2022-12-01"
"강서구","C171015_등촌3동 700(고정2)(9시)","37.5590","126.8457","1","2022-12-01"
"강서구","C171015_등촌3동 700(고정3)(3시)","37.5590","126.8457","1","2022-12-01"
"강서구","C171015_등촌3동 700_PTZ","37.5590","126.8457","1","2022-12-01"
"강서구","C181001_가양1동 8-1","37.5724","126.8371","2","2022-12-01"
"강서구","C181001_가양1동 8-1(보조1) (12시)","37.5724","126.8371","1","2022-12-01"
"강서구","C181001_가양1동 8-1(보조2) (5시)","37.5724","126.8371","1","2022-12-01"
"강서구","C181001_가양1동 8-1(보조3) (3시)","37.5724","126.8371","1","2022-12-01"
"강서구","C181002(A8029)_마곡동 429 벽산아파트 101동 (양천로47길118)","37.5757","126.8366","2","2022-12-01"
"강서구","C181002(A8029)_마곡동 429 벽산아파트 101동 (양천로47길118)(보조1) (1시)","37.5757","126.8366","1","2022-12-01"
"강서구","C181002(A8029)_마곡동 429 벽산아파트 101동 (양천로47길118)(보조2) (4시)","37.5757","126.8366","1","2022-12-01"
"강서구","C181002(A8029)_마곡동 429 벽산아파트 101동 (양천로47길118)(보조3) (5시)","37.5757","126.8366","1","2022-12-01"
"강서구","C181003_마곡동 10-3 궁산공원입구 전주옆","37.5726","126.8384","2","2022-12-01"
"강서구","C181003_마곡동 10-3 궁산공원입구 전주옆_보조1 (4시)","37.5726","126.8384","1","2022-12-01"
"강서구","C181004_마곡동 10-6 궁산공원 배드민턴장 입구","37.5733","126.8381","2","2022-12-01"
"강서구","C181005_마곡동 717-2 (양천로47길80-10)","37.5741","126.8379","1","2022-12-01"
"강서구","C181007(SC129) - 마곡동 727-709 마곡역 앞","37.5601","126.8259","1","2022-12-01"
"강서구","C181007(SC129) - 마곡동 727-709 마곡역 앞(보조1)(10시)","37.5601","126.8259","1","2022-12-01"
"강서구","C181008(SC140) - 마곡중앙5로1길 연구단지D2 앞","37.5720","126.8267","1","2022-12-01"
"강서구","C181008(SC140) - 마곡중앙5로1길 연구단지D2 앞(교차로1) (3시 롯데중앙연구소)","37.5720","126.8267","1","2022-12-01"
"강서구","C181008(SC140) - 마곡중앙5로1길 연구단지D2 앞(보조1)  (3시 롯데중앙연구소)","37.5720","126.8267","1","2022-12-01"
"강서구","C181009(SC204) - 공항대로 마곡역 건너 연결녹지22호 앞","37.5602","126.8272","1","2022-12-01"
"강서구","C181009(SC204) - 공항대로 마곡역 건너 연결녹지22호 앞(교차로1) (사거리 가운데)","37.5602","126.8272","1","2022-12-01"
"강서구","C181009(SC204) - 공항대로 마곡역 건너 연결녹지22호 앞(교차로2) (6시 엠벨리 14.15단지)","37.5602","126.8272","1","2022-12-01"
"강서구","C181009(SC204) - 공항대로 마곡역 건너 연결녹지22호 앞(보조1) (카메라앞 횡단보도)","37.5602","126.8272","1","2022-12-01"
"강서구","C181010(SC301) - 마곡중앙로 연구단지D6 앞","37.5725","126.8292","1","2022-12-01"
"강서구","C181010(SC301) - 마곡중앙로 연구단지D6 앞(교차로1) (12시 CNG충전소앞 횡단보도)","37.5725","126.8292","1","2022-12-01"
"강서구","C181010(SC301) - 마곡중앙로 연구단지D6 앞(교차로2) (9시 방화사거리)","37.5725","126.8292","1","2022-12-01"
"강서구","C181010(SC301) - 마곡중앙로 연구단지D6 앞(보조1) (사거리횡단보도)","37.5725","126.8292","1","2022-12-01"
"강서구","C181011(SC131) - 마곡중앙로 국제업무단지 CP2앞","37.5634","126.8271","1","2022-12-01"
"강서구","C181011(SC131) - 마곡중앙로 국제업무단지 CP2앞(보조1) (12시 마곡나루역)","37.5634","126.8271","1","2022-12-01"
"강서구","C181012(SC112)-방화대로34길 55 앞 2단지 건너편","37.5702","126.8191","1","2022-12-01"
"강서구","C181012(SC112)-방화대로34길 55 앞 2단지 건너편(교차로1)(3시)","37.5702","126.8191","1","2022-12-01"
"강서구","C181012(SC112)-방화대로34길 55 앞 2단지 건너편(교차로2)(6시-7시)","37.5702","126.8191","1","2022-12-01"
"강서구","C181012(SC112)-방화대로34길 55 앞 2단지 건너편(보조1) (11시 강서통합관제센터)","37.5702","126.8191","1","2022-12-01"
"강서구","C181013(SC120) - 방화대로34길 12 서울마곡유치원 앞 공원","37.5692","126.8184","1","2022-12-01"
"강서구","C181013(SC120) - 방화대로34길 12 서울마곡유치원 앞 공원(보조1) (12시)","37.5692","126.8184","1","2022-12-01"
"강서구","C181014(SC136) - 마곡중앙로 국제업무단지 C3 앞","37.5684","126.8279","1","2022-12-01"
"강서구","C181014(SC136) - 마곡중앙로 국제업무단지 C3 앞(교차로1)","37.5684","126.8279","1","2022-12-01"
"강서구","C181014(SC136) - 마곡중앙로 국제업무단지 C3 앞(교차로1) (6시 마곡나루역)","37.5684","126.8279","1","2022-12-01"
"강서구","C181014(SC136) - 마곡중앙로 국제업무단지 C3 앞(교차로2) (3시 서울식물원)","37.5684","126.8279","1","2022-12-01"
"강서구","C181014(SC136) - 마곡중앙로 국제업무단지 C3 앞(보조1) (6시 마곡나루역)","37.5684","126.8279","1","2022-12-01"
"강서구","C181015(SC103) - 공항대로 10-2단지 앞","37.5604","126.8181","1","2022-12-01"
"강서구","C181015(SC103) - 공항대로 10-2단지 앞(보조1) (3시 마곡역)","37.5604","126.8181","1","2022-12-01"
"강서구","C181016(SC203) - 공항대로 국제업무단지 C9 앞","37.5593","126.8289","1","2022-12-01"
"강서구","C181016(SC203) - 공항대로 국제업무단지 C9 앞(보조1) (3시 발산역)","37.5593","126.8289","1","2022-12-01"
"강서구","C181017(SC205) - 공항대로 연결녹지 29 건너편","37.5597","126.8297","1","2022-12-01"
"강서구","C181017(SC205) - 공항대로 연결녹지 29 건너편(보조1) (4시 발산역)","37.5597","126.8297","1","2022-12-01"
"강서구","C181018 - SC공원관리사무소01 고정1","37.5566","126.8213","1","2022-12-01"
"강서구","C181020(SC306) - 마곡중앙로 지원시설용지DS3 앞","37.5670","126.8282","1","2022-12-01"
"강서구","C181020(SC306) - 마곡중앙로 지원시설용지DS3 앞(교차로1) (6시 마곡역)","37.5670","126.8282","1","2022-12-01"
"강서구","C181020(SC306) - 마곡중앙로 지원시설용지DS3 앞(교차로2) (9시 마곡나루역)","37.5670","126.8282","1","2022-12-01"
"강서구","C181020(SC306) - 마곡중앙로 지원시설용지DS3 앞(보조1)","37.5670","126.8282","1","2022-12-01"
"강서구","C181021(SC109) - 마곡중앙5로와 마곡서1로 교차 사거리","37.5676","126.8188","1","2022-12-01"
"강서구","C181021(SC109) - 마곡중앙5로와 마곡서1로 교차 사거리(보조1) (9시 신방화역4번출구)","37.5676","126.8188","1","2022-12-01"
"강서구","C181021(SC109) - 마곡중앙5로와 마곡서1로 교차 사거리(보조2) (12시 엠벨리2.3단지 사이길)","37.5676","126.8188","1","2022-12-01"
"강서구","C181021(SC109) - 마곡중앙5로와 마곡서1로 교차 사거리(보조3) (6시 엠벨리5.6단지)","37.5676","126.8188","1","2022-12-01"
"강서구","C181022(SC121) - 마곡중앙5로 마곡중학교 맞은편","37.5670","126.8219","1","2022-12-01"
"강서구","C181022(SC121) - 마곡중앙5로 마곡중학교 맞은편(보조1) (9시 신방화역)","37.5670","126.8219","1","2022-12-01"
"강서구","C181022(SC121) - 마곡중앙5로 마곡중학교 맞은편(보조2줌-택시승강장) (9시 신방화역)","37.5670","126.8219","1","2022-12-01"
"강서구","C181023(SC123) - 마곡중앙5로와 마곡서로 교차 사거리","37.5671","126.8247","1","2022-12-01"
"강서구","C181023(SC123) - 마곡중앙5로와 마곡서로 교차 사거리(교차로1) (3시 마곡나루역)","37.5671","126.8247","1","2022-12-01"
"강서구","C181023(SC123) - 마곡중앙5로와 마곡서로 교차 사거리(교차로2) (6시 엠벨리7단지)","37.5671","126.8247","1","2022-12-01"
"강서구","C181023(SC123) - 마곡중앙5로와 마곡서로 교차 사거리(보조1) (9시 신방화역)","37.5671","126.8247","1","2022-12-01"
"강서구","C181024(SC125) - 마곡서1로 140-24","37.5685","126.8212","1","2022-12-01"
"강서구","C181024(SC125) - 마곡서1로 140-24(보조1) (3시 경남아파트)","37.5685","126.8212","1","2022-12-01"
"강서구","C181025(SC135) - 마곡중앙로 161과 마곡서로 교차 사거리","37.5683","126.8249","1","2022-12-01"
"강서구","C181025(SC135) - 마곡중앙로 161과 마곡서로 교차 사거리(교차로1) (1시 엠벨리4단지 406동)","37.5683","126.8249","1","2022-12-01"
"강서구","C181025(SC135) - 마곡중앙로 161과 마곡서로 교차 사거리(보조1) (6시 엠벨리7단지)","37.5683","126.8249","1","2022-12-01"
"강서구","C181026(SC106) - 마곡서1로 8단지 공원부지앞 삼거리","37.5651","126.8193","1","2022-12-01"
"강서구","C181026(SC106) - 마곡서1로 8단지 공원부지앞 삼거리(보조1) (12시 엠벨리1.3단지)","37.5651","126.8193","1","2022-12-01"
"강서구","C181026(SC106) - 마곡서1로 8단지 공원부지앞 삼거리(분기-고정)","37.5651","126.8193","1","2022-12-01"
"강서구","C181027(SC118) - 마곡서1로와 마곡중앙3로 교차 사거리","37.5628","126.8212","1","2022-12-01"
"강서구","C181027(SC118) - 마곡서1로와 마곡중앙3로 교차 사거리(보조1) (12시 엠벨리6단지)","37.5628","126.8212","1","2022-12-01"
"강서구","C181027(SC118) - 마곡서1로와 마곡중앙3로 교차 사거리(보조2)","37.5628","126.8212","1","2022-12-01"
"강서구","C181027(SC118) - 마곡서1로와 마곡중앙3로 교차 사거리(보조3) (6시 엠벨리10.11단지)","37.5628","126.8212","1","2022-12-01"
"강서구","C181028(SC130) - 마곡서로와 마곡중앙3로 교차 사거리","37.5619","126.8239","1","2022-12-01"
"강서구","C181028(SC130) - 마곡서로와 마곡중앙3로 교차 사거리(교차로1)","37.5619","126.8239","1","2022-12-01"
"강서구","C181028(SC130) - 마곡서로와 마곡중앙3로 교차 사거리(보조1) (6시 마곡역1번출구)","37.5619","126.8239","1","2022-12-01"
"강서구","C181029(SC114) - 마곡서로 공진초등학교 남쪽 끝 지점 교차로","37.5570","126.8223","1","2022-12-01"
"강서구","C181029(SC114) - 마곡서로 공진초등학교 남쪽 끝 지점 교차로(보조1)","37.5570","126.8223","1","2022-12-01"
"강서구","C181029(SC114) - 마곡서로 공진초등학교 남쪽 끝 지점 교차로(보조2) (7시 김포공항)","37.5570","126.8223","1","2022-12-01"
"강서구","C181029(SC114) - 마곡서로 공진초등학교 남쪽 끝 지점 교차로(보조3) (1시 마곡역)","37.5570","126.8223","1","2022-12-01"
"강서구","C181030(SC115) - 마곡중앙1로와 마곡서로 교차 사거리","37.5586","126.8233","1","2022-12-01"
"강서구","C181030(SC115) - 마곡중앙1로와 마곡서로 교차 사거리(교차로1)","37.5586","126.8233","1","2022-12-01"
"강서구","C181030(SC115) - 마곡중앙1로와 마곡서로 교차 사거리(보조1) (12시 마곡역)","37.5586","126.8233","1","2022-12-01"
"강서구","C181031(SC128) - 마곡서로와 공항대로 교차 사거리","37.5599","126.8234","1","2022-12-01"
"강서구","C181031(SC128) - 마곡서로와 공항대로 교차 사거리(보조1) (9시 마곡10.11단지)","37.5599","126.8234","1","2022-12-01"
"강서구","C181031(SC128) - 마곡서로와 공항대로 교차 사거리(보조2줌-택시승강장) (3시 마곡역)","37.5599","126.8234","1","2022-12-01"
"강서구","C181032(SC134) - 마곡중앙5로 마곡나루역 입구","37.5667","126.8260","1","2022-12-01"
"강서구","C181032(SC134) - 마곡중앙5로 마곡나루역 입구(보조1) (3시 마곡나루역)","37.5667","126.8260","1","2022-12-01"
"강서구","C181033(SC133) - 마곡중앙로 광장1호 앞","37.5657","126.8275","1","2022-12-01"
"강서구","C181033(SC133) - 마곡중앙로 광장1호 앞(보조1) (6시 마곡역)","37.5657","126.8275","1","2022-12-01"
"강서구","C181033(SC133) - 마곡중앙로 광장1호 앞(보조2줌-택시승강장) (12시 마곡나루역)","37.5657","126.8275","1","2022-12-01"
"강서구","C181035(SC127)-마곡중앙로 단지 건너편","37.5583","126.8265","1","2022-12-01"
"강서구","C181035(SC127)-마곡중앙로 단지 건너편(보조1)","37.5583","126.8265","1","2022-12-01"
"강서구","C181035(SC127)-마곡중앙로 단지 건너편(보조2)","37.5583","126.8265","1","2022-12-01"
"강서구","C181035(SC127)-마곡중앙로 단지 건너편(보조3) (6시 엠벨리14.15단지)","37.5583","126.8265","1","2022-12-01"
"강서구","C181037(SC105) - 마곡중앙3로 N3(종교 부지) 앞 삼거리","37.5630","126.8187","1","2022-12-01"
"강서구","C181037(SC105) - 마곡중앙3로 N3(종교 부지) 앞 삼거리(보조1) (3시 공항초교)","37.5630","126.8187","1","2022-12-01"
"강서구","C181038(SC107) - 마곡서1로 111-15단지 건너편","37.5667","126.8175","1","2022-12-01"
"강서구","C181038(SC107) - 마곡서1로 111-15단지 건너편(보조1) (9시 방화대로)","37.5667","126.8175","1","2022-12-01"
"강서구","C181039(SC117) - 마곡서1로와 공항대로 교차 사거리","37.5602","126.8199","1","2022-12-01"
"강서구","C181039(SC117) - 마곡서1로와 공항대로 교차 사거리(교차로1) (3시 마곡역)","37.5602","126.8199","1","2022-12-01"
"강서구","C181039(SC117) - 마곡서1로와 공항대로 교차 사거리(교차로2)","37.5602","126.8199","1","2022-12-01"
"강서구","C181039(SC117) - 마곡서1로와 공항대로 교차 사거리(보조1) (3시 마곡역)","37.5602","126.8199","1","2022-12-01"
"강서구","C181040(SC108) - 공항로 연결녹지2호 입구","37.5600","126.8219","1","2022-12-01"
"강서구","C181040(SC108) - 공항로 연결녹지2호 입구(보조1) (5시 마곡11.12단지길 사이길)","37.5600","126.8219","1","2022-12-01"
"강서구","C181041(SC141) - 마곡서로 185-1","37.5709","126.8253","1","2022-12-01"
"강서구","C181041(SC141) - 마곡서로 185-1(보조1) (7시엠벨리4단지)","37.5709","126.8253","1","2022-12-01"
"강서구","C181042(SC142) - 마곡서로 연결녹지40호 앞","37.5716","126.8242","2","2022-12-01"
"강서구","C181042(SC142) - 마곡서로 연결녹지40호 앞(보조1) (11시 신안빌라1동)","37.5716","126.8242","1","2022-12-01"
"강서구","C181043(SC143) - 양천로30길 연결녹지38호 앞","37.5730","126.8228","1","2022-12-01"
"강서구","C181043(SC143) - 양천로30길 연결녹지38호 앞(보조1) (6시 마곡동 우편취급국)","37.5730","126.8228","1","2022-12-01"
"강서구","C181044(SC110) - 방화대로 강서통합관제센터 앞","37.5707","126.8169","2","2022-12-01"
"강서구","C181044(SC110) - 방화대로 강서통합관제센터 앞(보조1) (6시 방화1동주민센터앞)","37.5707","126.8169","1","2022-12-01"
"강서구","C181044(SC110) - 방화대로 강서통합관제센터 앞(보조2) (12시 방화사거리)","37.5707","126.8169","1","2022-12-01"
"강서구","C181044(SC110) - 방화대로 강서통합관제센터 앞(보조3) (2시 공항고후문)","37.5707","126.8169","1","2022-12-01"
"강서구","C181045(SC137) - 마곡중앙로 업무단지3 앞","37.5693","126.8266","1","2022-12-01"
"강서구","C181045(SC137) - 마곡중앙로 업무단지3 앞(보조1) (12시 마곡헤리움2차오피스텔)","37.5693","126.8266","1","2022-12-01"
"강서구","C181046(SC212) - 공항대로 국제업무단지 C6 앞","37.5594","126.8321","1","2022-12-01"
"강서구","C181046(SC212) - 공항대로 국제업무단지 C6 앞(보조1) (3시 에이스타워 마곡)","37.5594","126.8321","1","2022-12-01"
"강서구","C181047(SC220) - 공항대로 이화의료원 부지 건너편","37.5587","126.8350","1","2022-12-01"
"강서구","C181047(SC220) - 공항대로 이화의료원 부지 건너편(보조1) (3시 이화의료원)","37.5587","126.8350","1","2022-12-01"
"강서구","C181048(SC213) - 마곡동 727-1165 (마곡동로 업무단지C7 앞(보조1) (1시 스타벅스 마곡사이언스타워R점)","37.5596","126.8336","1","2022-12-01"
"강서구","C181048(SC213) - 마곡동 727-1165(마곡동로 업무단지C7 앞)","37.5596","126.8336","1","2022-12-01"
"강서구","C181049(SC221) - 마곡동 727-1181(공항대로 발산역 앞(보조1) (4시 발산역9번출구)","37.5590","126.8363","1","2022-12-01"
"강서구","C181049(SC221) - 마곡동 727-1181(공항대로 발산역 앞(보조2줌-택시승강장) (10시 마곡역)","37.5590","126.8363","1","2022-12-01"
"강서구","C181049(SC221) - 마곡동 727-1181(공항대로 발산역 앞)","37.5590","126.8363","1","2022-12-01"
"강서구","C181050(SC139) - 마곡중앙로 연구개발단지D3 앞","37.5718","126.8284","1","2022-12-01"
"강서구","C181050(SC139) - 마곡중앙로 연구개발단지D3 앞(보조1) (6시 마곡나루역)","37.5718","126.8284","1","2022-12-01"
"강서구","C181051(SC132) - 마곡중앙로 연결녹지5호 앞","37.5635","126.8245","1","2022-12-01"
"강서구","C181051(SC132) - 마곡중앙로 연결녹지5호 앞(보조1) (12시 마곡7단지 714동 방향)","37.5635","126.8245","1","2022-12-01"
"강서구","C181051(SC132) - 마곡중앙로 연결녹지5호 앞(보조2) (6시 동익드미라벨복합빌딩)","37.5635","126.8245","1","2022-12-01"
"강서구","C181051(SC132) - 마곡중앙로 연결녹지5호 앞(보조3)","37.5635","126.8245","1","2022-12-01"
"강서구","C181052(SC122) - 연결녹지33호 내","37.5558","126.8240","1","2022-12-01"
"강서구","C181052(SC122) - 연결녹지33호 내(보조1)","37.5558","126.8240","1","2022-12-01"
"강서구","C181053(SC104) - 마곡중앙1로 연결녹지1호 입구","37.5584","126.8221","1","2022-12-01"
"강서구","C181053(SC104) - 마곡중앙1로 연결녹지1호 입구(보조1) (6시 공진초등학교 뒤쪽길)","37.5584","126.8221","1","2022-12-01"
"강서구","C181053(SC104) - 마곡중앙1로 연결녹지1호 입구(보조줌2통학로)","37.5584","126.8221","1","2022-12-01"
"강서구","C181054(SC102) - 마곡중앙로1로 13단지 앞","37.5587","126.8184","1","2022-12-01"
"강서구","C181054(SC102) - 마곡중앙로1로 13단지 앞(보조1) (3시 공진초교)","37.5587","126.8184","1","2022-12-01"
"강서구","C181054(SC102) - 마곡중앙로1로 13단지 앞(보조줌 통학로1) (3시 공진초교)","37.5587","126.8184","1","2022-12-01"
"강서구","C181055(SC116) - 마곡중앙1로와 마곡서1로 교차 사거리","37.5585","126.8201","1","2022-12-01"
"강서구","C181055(SC116) - 마곡중앙1로와 마곡서1로 교차 사거리(교차로1)","37.5585","126.8201","1","2022-12-01"
"강서구","C181055(SC116) - 마곡중앙1로와 마곡서1로 교차 사거리(보조1) (6시 반야정사)","37.5585","126.8201","1","2022-12-01"
"강서구","C181056(SC138) - 마곡중앙3로 연결녹지4호 입구","37.5624","126.8223","1","2022-12-01"
"강서구","C181056(SC138) - 마곡중앙3로 연결녹지4호 입구(보조1) (12시 마곡엠벨리 6.7단지 사이길)","37.5624","126.8223","1","2022-12-01"
"강서구","C181057(SC113) - 마곡서1로 근린공원3호 하단부","37.5555","126.8200","1","2022-12-01"
"강서구","C181057(SC113) - 마곡서1로 근린공원3호 하단부(보조1) (12시 반야정사)","37.5555","126.8200","1","2022-12-01"
"강서구","C181058(SC202) - 마곡중앙2로 25-8","37.5553","126.8293","1","2022-12-01"
"강서구","C181058(SC202) - 마곡중앙2로 25-8(보조1) (12시 마곡15단지1502동 방향)","37.5553","126.8293","1","2022-12-01"
"강서구","C181059(SC201) - 마곡중앙로 어린이공원2호 앞","37.5555","126.8266","1","2022-12-01"
"강서구","C181059(SC201) - 마곡중앙로 어린이공원2호 앞(교차로1) (6시 마곡수명산파크3단지)","37.5555","126.8266","1","2022-12-01"
"강서구","C181059(SC201) - 마곡중앙로 어린이공원2호 앞(교차로2)","37.5555","126.8266","1","2022-12-01"
"강서구","C181059(SC201) - 마곡중앙로 어린이공원2호 앞(보조1) (3시 마곡수명산파크1단지116동)","37.5555","126.8266","1","2022-12-01"
"강서구","C181060(SC210) - 마곡동로1길 연구단지D34 앞(교차로1)","37.5564","126.8303","1","2022-12-01"
"강서구","C181060(SC210) - 마곡동로1길 연구단지D34 앞(교차로2) (9시 엠벨리14단지)","37.5564","126.8303","1","2022-12-01"
"강서구","C181060(SC210) - 마곡동로1길 연구단지D34 앞(보조1) (12시 마곡지웰타워)","37.5564","126.8303","1","2022-12-01"
"강서구","C181061(SC211) - 마곡중앙2로 25-1","37.5579","126.8298","1","2022-12-01"
"강서구","C181061(SC211) - 마곡중앙2로 25-1 보조1","37.5579","126.8298","1","2022-12-01"
"강서구","C181062(SC207) - 마곡중앙로 연구단지 DP2 앞","37.5621","126.8275","1","2022-12-01"
"강서구","C181062(SC207) - 마곡중앙로 연구단지 DP2 앞(교차로1) (6시 힐스테이트에코마곡역)","37.5621","126.8275","1","2022-12-01"
"강서구","C181062(SC207) - 마곡중앙로 연구단지 DP2 앞(교차로2) (9시 공항초교)","37.5621","126.8275","1","2022-12-01"
"강서구","C181062(SC207) - 마곡중앙로 연구단지 DP2 앞(보조1) (12시 마곡나루역)","37.5621","126.8275","1","2022-12-01"
"강서구","C181063(SC208) - 마곡중앙10로  연결녹지 6호 앞","37.5641","126.8309","1","2022-12-01"
"강서구","C181063(SC208) - 마곡중앙10로  연결녹지 6호 앞(보조1)","37.5641","126.8309","1","2022-12-01"
"강서구","C181064(SC209)_강서구 마곡동 728-62","37.5553","126.8325","1","2022-12-01"
"강서구","C181064(SC209)_강서구 마곡동 728-62(교차로1)","37.5553","126.8325","1","2022-12-01"
"강서구","C181064(SC209)_강서구 마곡동 728-62(보조1)","37.5553","126.8325","1","2022-12-01"
"강서구","C181065(SC214) - 마곡동 727-1046 (마곡중앙6로 연결녹지 24호 앞(보조1) (3시 공진초등학교)","37.5605","126.8313","1","2022-12-01"
"강서구","C181065(SC214) - 마곡동 727-1046 (마곡중앙6로 연결녹지 24호 앞(보조2줌) (9시 아네스마곡)","37.5605","126.8313","1","2022-12-01"
"강서구","C181065(SC214) - 마곡동 727-1046 (마곡중앙6로 연결녹지 24호 앞(보조2줌))","37.5605","126.8313","1","2022-12-01"
"강서구","C181065(SC214) - 마곡동 727-1046 (마곡중앙6로 연결녹지 24호 앞)","37.5605","126.8313","1","2022-12-01"
"강서구","C181066(SC215) - 마곡동 727-1021(마곡중앙8로 문화공원2호 앞(교차로1) (9시 LG사이언스파크 S4/5동)","37.5614","126.8305","1","2022-12-01"
"강서구","C181066(SC215) - 마곡동 727-1021(마곡중앙8로 문화공원2호 앞(보조1) (3시 LG사이언스파크 LG CNS동)","37.5614","126.8305","1","2022-12-01"
"강서구","C181066(SC215) - 마곡동 727-1021(마곡중앙8로 문화공원2호 앞)","37.5614","126.8305","1","2022-12-01"
"강서구","C181067(SC216)_강서구 마곡동 728-49 경관녹지","37.5551","126.8350","1","2022-12-01"
"강서구","C181067(SC216)_강서구 마곡동 728-49 경관녹지(교차로1) (9시 마곡수명산파크1단지)","37.5551","126.8350","1","2022-12-01"
"강서구","C181067(SC216)_강서구 마곡동 728-49 경관녹지(보조1)","37.5551","126.8350","1","2022-12-01"
"강서구","C181068(SC217)_강서구 마곡동 728-41 가곡초등학교 앞","37.5561","126.8352","1","2022-12-01"
"강서구","C181068(SC217)_강서구 마곡동 728-41 가곡초등학교 앞(보조1) (3시 가곡초등학교)","37.5561","126.8352","1","2022-12-01"
"강서구","C181068(SC217)_강서구 마곡동 728-41 가곡초등학교 앞(보조2)","37.5561","126.8352","1","2022-12-01"
"강서구","C181068(SC217)_강서구 마곡동 728-41 가곡초등학교 앞(보조3)","37.5561","126.8352","1","2022-12-01"
"강서구","C181069(SC218)_강서구 마곡동 728-76","37.5562","126.8330","1","2022-12-01"
"강서구","C181069(SC218)_강서구 마곡동 728-76(교차로1)","37.5562","126.8330","1","2022-12-01"
"강서구","C181069(SC218)_강서구 마곡동 728-76(보조1) (3시 이대서울병원)","37.5562","126.8330","1","2022-12-01"
"강서구","C181070(SC219)_강서구 마곡동 728-109","37.5585","126.8334","1","2022-12-01"
"강서구","C181070(SC219)_강서구 마곡동 728-109(보조1)","37.5585","126.8334","1","2022-12-01"
"강서구","C181071(SC222) - 마곡중앙6로 상업시설B8 앞","37.5597","126.8378","1","2022-12-01"
"강서구","C181071(SC222) - 마곡중앙6로 상업시설B8 앞(교차로1) (12시 플레이스H)","37.5597","126.8378","1","2022-12-01"
"강서구","C181071(SC222) - 마곡중앙6로 상업시설B8 앞(보조1) (9시 인터시티365)","37.5597","126.8378","1","2022-12-01"
"강서구","C181072(SC223) - 마곡중앙8로 연결녹지26호 앞","37.5602","126.8358","1","2022-12-01"
"강서구","C181072(SC223) - 마곡중앙8로 연결녹지26호 앞(교차로1) (9시 마곡사이언스타워)","37.5602","126.8358","1","2022-12-01"
"강서구","C181072(SC223) - 마곡중앙8로 연결녹지26호 앞(보조1) (3시 엔시백화점)","37.5602","126.8358","1","2022-12-01"
"강서구","C181073(SC224) - 마곡중앙6로 연구단지D30 앞","37.5609","126.8337","1","2022-12-01"
"강서구","C181073(SC224) - 마곡중앙6로 연구단지D30 앞(교차로1)","37.5609","126.8337","1","2022-12-01"
"강서구","C181073(SC224) - 마곡중앙6로 연구단지D30 앞(보조1) (3시 에스엠알앤디센터)","37.5609","126.8337","1","2022-12-01"
"강서구","C181074(SC225) - 마곡동로 LG화학 연결녹지17호 앞","37.5624","126.8339","1","2022-12-01"
"강서구","C181074(SC225) - 마곡동로 LG화학 연결녹지17호 앞(보조1)","37.5624","126.8339","1","2022-12-01"
"강서구","C181075(SC226) - 마곡중앙8로1길 문화공원3호 앞","37.5622","126.8360","1","2022-12-01"
"강서구","C181075(SC226) - 마곡중앙8로1길 문화공원3호 앞(보조1) (12시 LS산전 가양사업장)","37.5622","126.8360","1","2022-12-01"
"강서구","C181076(SC227) - 마곡중앙8로7길 연결녹지19호 앞","37.5622","126.8385","1","2022-12-01"
"강서구","C181076(SC227) - 마곡중앙8로7길 연결녹지19호 앞(보조1) (1시 유림트윈파크)","37.5622","126.8385","1","2022-12-01"
"강서구","C181077(SC228) - 마곡중앙10로 연결녹지 14호 앞","37.5636","126.8371","1","2022-12-01"
"강서구","C181077(SC228) - 마곡중앙10로 연결녹지 14호 앞(보조1)","37.5636","126.8371","1","2022-12-01"
"강서구","C181078(SC229) - 마곡동로6길 연구단지D18 앞","37.5651","126.8394","1","2022-12-01"
"강서구","C181078(SC229) - 마곡동로6길 연구단지D18 앞(교차로1)","37.5651","126.8394","1","2022-12-01"
"강서구","C181078(SC229) - 마곡동로6길 연구단지D18 앞(보조1)","37.5651","126.8394","1","2022-12-01"
"강서구","C181079(SC230) - 마곡동로6길 연구단지D17 앞","37.5654","126.8365","1","2022-12-01"
"강서구","C181079(SC230) - 마곡동로6길 연구단지D17 앞(교차로1)","37.5654","126.8365","1","2022-12-01"
"강서구","C181079(SC230) - 마곡동로6길 연구단지D17 앞(교차로2)","37.5654","126.8365","1","2022-12-01"
"강서구","C181079(SC230) - 마곡동로6길 연구단지D17 앞(보조1) (7시 에스오일화학기술개발센터)","37.5654","126.8365","1","2022-12-01"
"강서구","C181080(SC231) - 마곡동로 연구단지D16 앞","37.5656","126.8344","1","2022-12-01"
"강서구","C181080(SC231) - 마곡동로 연구단지D16 앞(교차로1) (6시 코오롱one&only타워)","37.5656","126.8344","1","2022-12-01"
"강서구","C181080(SC231) - 마곡동로 연구단지D16 앞(보조1)","37.5656","126.8344","1","2022-12-01"
"강서구","C181081(SC232) - 마곡동로 연결녹지7호 앞","37.5684","126.8355","1","2022-12-01"
"강서구","C181081(SC232) - 마곡동로 연결녹지7호 앞(교차로1) (12시 서울식물원)","37.5684","126.8355","1","2022-12-01"
"강서구","C181081(SC232) - 마곡동로 연결녹지7호 앞(보조1) (7시)","37.5684","126.8355","1","2022-12-01"
"강서구","C181082(SC233) - 마곡중앙8로3길 문화공원5호 앞","37.5671","126.8385","1","2022-12-01"
"강서구","C181082(SC233) - 마곡중앙8로3길 문화공원5호 앞(보조1) (7시 유한테크노스빌딩)","37.5671","126.8385","1","2022-12-01"
"강서구","C181083(SC235) - 마곡동로10길 연구개발단지 D15 앞","37.5678","126.8401","1","2022-12-01"
"강서구","C181083(SC235) - 마곡동로10길 연구개발단지 D15 앞(보조1) (6시 새싹타워)","37.5678","126.8401","1","2022-12-01"
"강서구","C181084(SC236) - 마곡중앙로8로 1길 연결녹지 9호 앞","37.5689","126.8386","1","2022-12-01"
"강서구","C181084(SC236) - 마곡중앙로8로 1길 연결녹지 9호 앞(교차로1) (7시 크레스라이트부설연구소)","37.5689","126.8386","1","2022-12-01"
"강서구","C181084(SC236) - 마곡중앙로8로 1길 연결녹지 9호 앞(교차로2)","37.5689","126.8386","1","2022-12-01"
"강서구","C181084(SC236) - 마곡중앙로8로 1길 연결녹지 9호 앞(보조1) (1시 양천로 연결)","37.5689","126.8386","1","2022-12-01"
"강서구","C181085(SC302)_강서구 마곡동 52-1","37.5725","126.8314","1","2022-12-01"
"강서구","C181085(SC302)_강서구 마곡동 52-1(교차로1)","37.5725","126.8314","1","2022-12-01"
"강서구","C181085(SC302)_강서구 마곡동 52-1(보조1) (6시 서울식물원 뒤쪽길)","37.5725","126.8314","1","2022-12-01"
"강서구","C181086(SC303)_강서구 마곡동 253-6 연결녹지 내","37.5705","126.8311","1","2022-12-01"
"강서구","C181087(SC304)_강서구 마곡동 272-1","37.5680","126.8307","1","2022-12-01"
"강서구","C181087(SC304)_강서구 마곡동 272-1(보조1) (6시 메리어트호텔)","37.5680","126.8307","1","2022-12-01"
"강서구","C181088(SC307) - 마곡동로 보타닉공원 우측 하단","37.5642","126.8338","1","2022-12-01"
"강서구","C181088(SC307) - 마곡동로 보타닉공원 우측 하단(교차로1)","37.5642","126.8338","1","2022-12-01"
"강서구","C181088(SC307) - 마곡동로 보타닉공원 우측 하단(교차로2) (6시 LG사이언스파크 엘지화학3방향)","37.5642","126.8338","1","2022-12-01"
"강서구","C181088(SC307) - 마곡동로 보타닉공원 우측 하단(보조1) (1시 서울식물원)","37.5642","126.8338","1","2022-12-01"
"강서구","C181089(SC309) - 양천향교역 8번출구","37.5689","126.8401","1","2022-12-01"
"강서구","C181089(SC309) - 양천향교역 8번출구(보조1) (5시 양천향교역8번출구)","37.5689","126.8401","1","2022-12-01"
"강서구","C181089(SC309) - 양천향교역 8번출구(보조2줌-택시승강장) (10시 양천초등학교)","37.5689","126.8401","2","2022-12-01"
"강서구","C181090_마곡동 357-8(고정1)","37.5685","126.8236","1","2022-12-01"
"강서구","C181090_마곡동 357-8(고정2)","37.5685","126.8236","1","2022-12-01"
"강서구","C181090_마곡동 357-8_PTZ","37.5685","126.8236","1","2022-12-01"
"강서구","C181091_마곡동 327-24(고정1)","37.5720","126.8237","1","2022-12-01"
"강서구","C181091_마곡동 327-24(고정2)","37.5720","126.8237","1","2022-12-01"
"강서구","C181091_마곡동 327-24(고정3)","37.5720","126.8237","1","2022-12-01"
"강서구","C181091_마곡동 327-24_PTZ","37.5720","126.8237","1","2022-12-01"
"강서구","C191001(A1035)_발산1동 686-4","37.5534","126.8326","2","2022-12-01"
"강서구","C191001(A1035)_발산1동686-4(보조1) (10시 수명산1단지아파트)","37.5534","126.8326","1","2022-12-01"
"강서구","C191002(A1036)_발산1동 688-36","37.5525","126.8321","2","2022-12-01"
"강서구","C191002(A1036)_발산1동688-36(보조1) (5시 내츄럴3차아파트)","37.5525","126.8321","1","2022-12-01"
"강서구","C191003_발산1동 695-1","37.5515","126.8317","2","2022-12-01"
"강서구","C191003_발산1동 695-1(보조1) (5시 대성유니트아파트)","37.5515","126.8317","1","2022-12-01"
"강서구","C191004(A1038)_발산1동 708-18","37.5508","126.8350","1","2022-12-01"
"강서구","C191004(A1038)_발산1동708-18(보조1) (6시 선일빌라)","37.5509","126.8350","1","2022-12-01"
"강서구","C191005(A1039)_발산1동 710-56(고정2) (3시 청솔파인힐아파트)","37.5514","126.8341","1","2022-12-01"
"강서구","C191005(A1039)_발산1동 710-56(고정3) (12시 명덕중.고등학교)","37.5514","126.8341","1","2022-12-01"
"강서구","C191005(A1039)_발산1동 710-56(성능개선-철거)","37.5514","126.8341","1","2022-12-01"
"강서구","C191005(A1039)_발산1동710-56(고정1) (6시 산호맨션)","37.5514","126.8341","1","2022-12-01"
"강서구","C191006_발산1동 711-16(강서로 47라길 64)","37.5504","126.8331","1","2022-12-01"
"강서구","C191007_발산1동 697","37.5524","126.8330","1","2022-12-01"
"강서구","C191007_발산1동 697 - 카메라 1","37.5524","126.8330","1","2022-12-01"
"강서구","C191007_발산1동 697(보조1) (5시 발산경로당)","37.5524","126.8330","1","2022-12-01"
"강서구","C191008_발산1동 223-4(남부순환로 19길 50)","37.5467","126.8241","2","2022-12-01"
"강서구","C191009(A4036)_발산1동 692-6","37.5517","126.8305","2","2022-12-01"
"강서구","C191010(A4037)_발산1동 681-25","37.5532","126.8343","2","2022-12-01"
"강서구","C191010(A4037)_발산1동 681-25(보조1) (9시-10시 삼오아트빌라)","37.5532","126.8343","1","2022-12-01"
"강서구","C191011_남부순환로19길 117","37.5373","126.8406","1","2022-12-01"
"강서구","C191011_남부순환로19길 117","37.5470","126.8224","2","2022-12-01"
"강서구","C191011_발산1동(외발산동) 219-1","37.5470","126.8224","1","2022-12-01"
"강서구","C191012(A5009)_발산1동 716-24","37.5493","126.8341","2","2022-12-01"
"강서구","C191012(A5009)_발산1동716-24(보조1) (9시 발산초교)","37.5493","126.8341","1","2022-12-01"
"강서구","C191013(A5023)_발산동 산60(덕원예고)","37.5489","126.8303","2","2022-12-01"
"강서구","C191014_발산1동 682(고정1) (4시 발산1동 681-25 방향)","37.5539","126.8329","1","2022-12-01"
"강서구","C191014_발산1동 682(고정2) (9시 승석하이츠빌라)","37.5539","126.8329","1","2022-12-01"
"강서구","C191015_발산1동 696-4(고정1) (2시 청솔파인힐아파트)","37.5514","126.8327","1","2022-12-01"
"강서구","C191015_발산1동 696-4(고정2) (5시 발산1동 711-16 방향)","37.5514","126.8327","1","2022-12-01"
"강서구","C191015_발산1동 696-4(고정3) (11시 내츄럴 3차 아파트)","37.5514","126.8327","1","2022-12-01"
"강서구","C191016_발산1동 700 세븐일레븐(고정1) (9시 발산1동 주민센터)","37.5527","126.8351","1","2022-12-01"
"강서구","C191016_발산1동 700 세븐일레븐(고정2) (3시 서광약국)","37.5527","126.8351","1","2022-12-01"
"강서구","C191016_발산1동 700 세븐일레븐(분기-고정3) (6시 낙원아파트)","37.5527","126.8350","1","2022-12-01"
"강서구","C191018_발산1동(내발산동) 696-11(고정1) (3시 태일아파트)","37.5520","126.8330","1","2022-12-01"
"강서구","C191018_발산1동(내발산동) 696-11(고정2) (5시 금성맨션)","37.5520","126.8330","1","2022-12-01"
"강서구","C191018_발산1동(내발산동) 697-8(분기-고정1)","37.5520","126.8330","1","2022-12-01"
"강서구","C191019_발산1동(내발산동) 689-8(고정1) (11시 수명산파크1단지)","37.5522","126.8313","1","2022-12-01"
"강서구","C191020_발산1동(내발산동) 722-1(고정1) (5시 태승훼미리아파트5차)","37.5482","126.8327","1","2022-12-01"
"강서구","C191020_발산1동(내발산동) 722-1(고정2) (11시 발산초등학교)","37.5482","126.8327","1","2022-12-01"
"강서구","C191021_발산1동(내발산동) 711-1(고정1) (8시 발산초등학교)","37.5509","126.8325","1","2022-12-01"
"강서구","C191022_발산1동(내발산동) 687-13(고정1) (2시 발음공원)","37.5519","126.8324","1","2022-12-01"
"강서구","C191023_발산1동(내발산동) 676-26(고정1) (3시 홍익아파트)","37.5524","126.8394","1","2022-12-01"
"강서구","C191023_발산1동(내발산동) 676-26(고정2) (9시 발산정화어린이집)","37.5524","126.8394","1","2022-12-01"
"강서구","C191023_발산1동(내발산동) 676-26(고정3)) (12시 미즈메디어린이집)","37.5524","126.8394","1","2022-12-01"
"강서구","C191025_발산1동(내발산동) 738(고정1) (7시 우장산아이파트129동)","37.5512","126.8393","1","2022-12-01"
"강서구","C191025_발산1동(내발산동) 738(고정1) (7시 우장산아이파트129동)","37.5517","126.8395","1","2022-12-01"
"강서구","C191025_발산1동(내발산동) 738(고정2) (1시 홍익아파트)","37.5517","126.8395","1","2022-12-01"
"강서구","C191026_발산1동(내발산동) 708(고정1)","37.5518","126.8350","1","2022-12-01"
"강서구","C191026_발산1동(내발산동) 708(고정2)","37.5518","126.8352","1","2022-12-01"
"강서구","C191026_발산1동(내발산동) 708(고정3)","37.5518","126.8352","1","2022-12-01"
"강서구","C191026_발산1동(내발산동) 708(고정4)","37.5518","126.8350","1","2022-12-01"
"강서구","C191026_발산1동(내발산동) 708(고정5)","37.5518","126.8352","1","2022-12-01"
"강서구","C191027_발산1동(내발산동) 694-24(고정1)","37.5507","126.8321","1","2022-12-01"
"강서구","C191028_발산1동(내발산동) 750-11(고정1)","37.5533","126.8272","1","2022-12-01"
"강서구","C191028_발산1동(내발산동) 750-11(고정2)","37.5533","126.8272","1","2022-12-01"
"강서구","C191029_발산1동(내발산동) 723-9(고정1)","37.5480","126.8361","1","2022-12-01"
"강서구","C191029_발산1동(내발산동) 723-9(고정2)","37.5480","126.8361","1","2022-12-01"
"강서구","C191030_발산1동(내발산동) 721-4(고정1)","37.5484","126.8337","1","2022-12-01"
"강서구","C191030_발산1동(내발산동) 721-4(고정2)","37.5484","126.8337","1","2022-12-01"
"강서구","C191030_발산1동(내발산동) 721-4(고정3)","37.5485","126.8339","1","2022-12-01"
"강서구","C191030_발산1동(내발산동) 721-4(고정4)","37.5484","126.8337","1","2022-12-01"
"강서구","C191031_발산1동(내발산동) 716-13(고정1)","37.5497","126.8343","1","2022-12-01"
"강서구","C191031_발산1동(내발산동) 716-13(고정2)","37.5497","126.8343","1","2022-12-01"
"강서구","C191032_발산1동(내발산동) 699-9(고정1)","37.5518","126.8342","1","2022-12-01"
"강서구","C191033_발산1동(내발산동) 691(고정1)","37.5530","126.8297","1","2022-12-01"
"강서구","C191034_발산1동(내발산동) 684(고정1)","37.5543","126.8323","1","2022-12-01"
"강서구","C191034_발산1동(내발산동) 684(고정2)","37.5543","126.8323","1","2022-12-01"
"강서구","C191034_발산1동(내발산동) 684(고정3)","37.5543","126.8323","1","2022-12-01"
"강서구","C191034_발산1동(내발산동) 684(고정4)","37.5543","126.8323","1","2022-12-01"
"강서구","C191035_발산1동(외발산동) 216-23(고정1)","37.5475","126.8241","1","2022-12-01"
"강서구","C191035_발산1동(외발산동) 216-23(고정2)","37.5475","126.8241","1","2022-12-01"
"강서구","C191035_발산1동(외발산동) 216-23(고정3)","37.5475","126.8241","1","2022-12-01"
"강서구","C191036_발산1동(내발산동) 718-19(고정1)","37.5494","126.8342","1","2022-12-01"
"강서구","C191037 내발산동 644-3  고정1","37.5579","126.8379","1","2022-12-01"
"강서구","C191037 내발산동 644-3  고정2","37.5579","126.8379","1","2022-12-01"
"강서구","C191037 내발산동 644-3  고정3","37.5579","126.8379","1","2022-12-01"
"강서구","C201001(A1049)_방화1동 247-154","37.5683","126.8153","2","2022-12-01"
"강서구","C201001(A1049)_방화1동247-154(보조1) (8시.9시 마곡펠리스)","37.5683","126.8153","1","2022-12-01"
"강서구","C201002(A1050)_방화1동 448-47","37.5747","126.8134","1","2022-12-01"
"강서구","C201003(A1051)_방화1동 493-6","37.5738","126.8069","2","2022-12-01"
"강서구","C201003(A1051)_방화1동 493-6(보조1) (7시 동부센트레빌아파트)","37.5738","126.8069","1","2022-12-01"
"강서구","C201003(A1051)_방화1동 493-6(보조2)","37.5738","126.8069","1","2022-12-01"
"강서구","C201004(A1053)_방화1동 607-170","37.5653","126.8148","2","2022-12-01"
"강서구","C201004(A1053)_방화1동 607-170(보조1) (5시 휴먼하이텔)","37.5653","126.8148","1","2022-12-01"
"강서구","C201005(A1054)_방화1동 608-97","37.5651","126.8157","1","2022-12-01"
"강서구","C201006(A1055)_방화1동 609-92","37.5657","126.8134","2","2022-12-01"
"강서구","C201006(A1055)_방화1동 609-92(보조1) (10시 방화동로)","37.5657","126.8134","1","2022-12-01"
"강서구","C201007(A1057)_방화1동 873","37.5716","126.8154","1","2022-12-01"
"강서구","C201007(A1057)_방화1동 873","37.5717","126.8154","1","2022-12-01"
"강서구","C201007(A1057)_방화1동 873(보조1) (7시 쌈지공원입구)","37.5717","126.8154","1","2022-12-01"
"강서구","C201008(A2021)_방화1동 249-10","37.5692","126.8135","2","2022-12-01"
"강서구","C201009(A4034)_방화1동 575-25","37.5725","126.8128","2","2022-12-01"
"강서구","C201010(A4042)_방화1동 451-15","37.5739","126.8119","2","2022-12-01"
"강서구","C201011(A4043)_방화1동 578-10","37.5724","126.8140","2","2022-12-01"
"강서구","C201011(A4043)_방화1동 578-10(보조1) (8시)","37.5724","126.8140","1","2022-12-01"
"강서구","C201012(A4044)_방화1동 580-43","37.5699","126.8127","2","2022-12-01"
"강서구","C201012(A4044)_방화1동 580-43(보조1) (5시 장수가구)","37.5699","126.8127","1","2022-12-01"
"강서구","C201013(A6043)_방화1동 607-24","37.5666","126.8131","2","2022-12-01"
"강서구","C201015[경찰방범]_방화1동 608-40","37.5666","126.8147","1","2022-12-01"
"강서구","C201016[경찰방범]_방화1동 611-174","37.5643","126.8128","1","2022-12-01"
"강서구","C201017(A8034)_방화1동 272-57","37.5718","126.8179","1","2022-12-01"
"강서구","C201017_방화1동 272-57(방화대로42길 18)(보조1)","37.5718","126.8179","1","2022-12-01"
"강서구","C201018(A8035)_방화1동 281-25 (양천로24길15)","37.5726","126.8156","2","2022-12-01"
"강서구","C201019(A8036)_방화1동 494-5 복지경로당 뒤 (양천로7길11-4)","37.5736","126.8078","2","2022-12-01"
"강서구","C201020(A8037)_방화1동 281-60 (양천로24가길9)","37.5729","126.8152","2","2022-12-01"
"강서구","C201021_방화1동 609-141","37.5650","126.8134","1","2022-12-01"
"강서구","C201021_방화1동 609-141 - 카메라 1","37.5650","126.8134","1","2022-12-01"
"강서구","C201022_방화동 485-3 - 카메라 1","37.5741","126.8099","1","2022-12-01"
"강서구","C201022_방화동 485-3(보조1) (12시 방화월드메르디앙아파트 101동)","37.5741","126.8099","1","2022-12-01"
"강서구","C201023_방화1동 249-183","37.5673","126.8134","1","2022-12-01"
"강서구","C201023_방화1동 249-183_보조1","37.5673","126.8134","1","2022-12-01"
"강서구","C201023_방화1동 249-183_보조2","37.5673","126.8134","1","2022-12-01"
"강서구","C201024_방화1동 857","37.5717","126.8225","1","2022-12-01"
"강서구","C201024_방화1동 857(보조1) (7시 강서기동대)","37.5717","126.8225","1","2022-12-01"
"강서구","C201024_방화동 857 - 카메라 1","37.5717","126.8225","1","2022-12-01"
"강서구","C201024_방화동 857(보조1) - 카메라 1","37.5717","126.8225","1","2022-12-01"
"강서구","C201025_방화동 607-143(고정1) (5시 방화동로12가길24 방향)","37.5663","126.8141","1","2022-12-01"
"강서구","C201025_방화동 607-143(고정2) (9시 금성교회)","37.5663","126.8141","1","2022-12-01"
"강서구","C201026_방화동 249-156(공항교회 뒤)(고정1) (6시 방화동로12길 연결)","37.5672","126.8141","1","2022-12-01"
"강서구","C201027_방화동 499-1 개화초등학교 옆(고정1) (6시 개화초등학교정문)","37.5735","126.8051","1","2022-12-01"
"강서구","C201027_방화동 499-1 개화초등학교 옆(고정1) - 카메라 1","37.5734","126.8051","1","2022-12-01"
"강서구","C201028_방화1동 251-27","37.5696","126.8150","1","2022-12-01"
"강서구","C201028_방화1동 251-27(보조1) (3시 신동아아파트)","37.5696","126.8150","1","2022-12-01"
"강서구","C201028_방화1동 251-27(보조2) (9시 방화대로 35길 30-1 막다른길)","37.5696","126.8150","1","2022-12-01"
"강서구","C201029_방화1동 611-16","37.5643","126.8121","1","2022-12-01"
"강서구","C201029_방화1동 611-16(보조1) (10시 방화대로21다길 1-21 막다른길)","37.5643","126.8121","1","2022-12-01"
"강서구","C201030_방화1동 574-35(고정1) (6시 삼성꽃마을아파트)","37.5730","126.8136","1","2022-12-01"
"강서구","C201030_방화1동 574-35(고정2) (9시 양천로 연결)","37.5730","126.8136","1","2022-12-01"
"강서구","C201030_방화1동 574-35(고정3) (3시 양천로24가길 연결)","37.5730","126.8136","1","2022-12-01"
"강서구","C201031_방화1동 451-14(고정1)","37.5741","126.8123","1","2022-12-01"
"강서구","C201032_공항동 18(고정1) (9시 방화1동 611-174 방향)","37.5644","126.8136","1","2022-12-01"
"강서구","C201032_공항동 18(고정2) (6시 방화대로23길 49-14 방향)","37.5644","126.8136","1","2022-12-01"
"강서구","C201032_공항동 18(고정3) (3시 공항동 2-5 방향)","37.5644","126.8136","1","2022-12-01"
"강서구","C201033_방화1동 251-16(고정1) (3시 방화대로방향 막힌길)","37.5691","126.8154","1","2022-12-01"
"강서구","C201033_방화1동 251-16(고정2) (9시 방화1동 249-10 방향)","37.5691","126.8154","1","2022-12-01"
"강서구","C201034_방화1동 184-19(고정1) (11시 방화대로34길 34방향 막힌길)","37.5704","126.8197","1","2022-12-01"
"강서구","C201035_방화1동 201-1(고정1) (3시 신안아파트)","37.5685","126.8226","1","2022-12-01"
"강서구","C201035_방화1동 201-1(고정2) (12시 마곡 한솔 솔파크아파트)","37.5685","126.8226","1","2022-12-01"
"강서구","C201035_방화1동 201-1(고정3) (5시 마곡중앙5로 연결)","37.5685","126.8226","1","2022-12-01"
"강서구","C201036_방화1동 189-22(고정1) (2시 삼성아파트)","37.5722","126.8204","1","2022-12-01"
"강서구","C201036_방화1동 189-22(고정2) (8시 도레미어린이공원)","37.5722","126.8204","1","2022-12-01"
"강서구","C201037_방화1동 266-33(고정1) (9시-11시 양천로24가길 연결)","37.5723","126.8146","1","2022-12-01"
"강서구","C201037_방화1동 266-33(고정2) (2시-5시 양천로24길 연결)","37.5723","126.8146","1","2022-12-01"
"강서구","C201041_방화1동 247-113(고정1) (3시 신방화역 1번출구)","37.5676","126.8151","1","2022-12-01"
"강서구","C201041_방화1동 247-113(고정2) (9시 성원빌딩)","37.5676","126.8151","1","2022-12-01"
"강서구","C201042_방화1동 607-97(고정1) (11시 수호포교원)","37.5657","126.8147","1","2022-12-01"
"강서구","C201043_방화1동 493-25(고정1) (9시 마루빌)","37.5735","126.8078","1","2022-12-01"
"강서구","C201044_방화1동 217-57(고정1)","37.5667","126.8152","1","2022-12-01"
"강서구","C201045_방화1동 260-9 쌈지공원(고정1)","37.5710","126.8154","1","2022-12-01"
"강서구","C201045_방화1동 260-9 쌈지공원(고정2)","37.5710","126.8154","1","2022-12-01"
"강서구","C201046_방화1동 492-6(고정1)","37.5739","126.8078","1","2022-12-01"
"강서구","C201046_방화1동 492-6(고정2)","37.5739","126.8078","1","2022-12-01"
"강서구","C201047_방화1동 453-23(고정1)","37.5749","126.8109","1","2022-12-01"
"강서구","C201047_방화1동 453-23(고정2)","37.5749","126.8109","1","2022-12-01"
"강서구","C201047_방화1동 453-23(고정3)","37.5749","126.8109","1","2022-12-01"
"강서구","C201048_방화1동 609-81(고정1)","37.5662","126.8133","1","2022-12-01"
"강서구","C201048_방화1동 609-81(고정2)","37.5662","126.8133","1","2022-12-01"
"강서구","C201048_방화1동 609-81(고정3)","37.5662","126.8133","1","2022-12-01"
"강서구","C201050_방화1동 249-153(고정1)","37.5688","126.8129","1","2022-12-01"
"강서구","C201050_방화1동 249-153(고정2)","37.5688","126.8129","1","2022-12-01"
"강서구","C201051_방화1동 245-15(고정1)","37.5695","126.8156","1","2022-12-01"
"강서구","C201051_방화1동 245-15(고정2)","37.5695","126.8156","1","2022-12-01"
"강서구","C201052_방화1동 247-34(고정1)","37.5679","126.8144","1","2022-12-01"
"강서구","C201052_방화1동 247-34(고정2)","37.5679","126.8144","1","2022-12-01"
"강서구","C201052_방화1동 247-34(고정3)","37.5679","126.8144","1","2022-12-01"
"강서구","C201052_방화1동 247-34(고정4)","37.5679","126.8144","1","2022-12-01"
"강서구","C201053_방화1동 247-176(고정1)","37.5684","126.8161","1","2022-12-01"
"강서구","C201054_방화동 187-1_고정1","37.5710","126.8212","1","2022-12-01"
"강서구","C201054_방화동 187-1_고정2","37.5710","126.8212","1","2022-12-01"
"강서구","C201054_방화동 187-1_고정3","37.5703","126.8197","1","2022-12-01"
"강서구","C201054_방화동 187-1_고정4","37.5703","126.8197","1","2022-12-01"
"강서구","C201055_방화동 598-6_고정1","37.5676","126.8127","1","2022-12-01"
"강서구","C201055_방화동 598-6_고정2","37.5676","126.8127","1","2022-12-01"
"강서구","C201055_방화동 598-6_고정3","37.5676","126.8127","1","2022-12-01"
"강서구","C201056_방화동 249-194_고정1","37.5672","126.8143","1","2022-12-01"
"강서구","C201056_방화동 249-194_고정2","37.5672","126.8143","1","2022-12-01"
"강서구","C201056_방화동 249-194_고정3","37.5672","126.8143","1","2022-12-01"
"강서구","C201057_방화1동 180-7(고정1)","37.5731","126.8177","1","2022-12-01"
"강서구","C201057_방화1동 180-7(고정2)","37.5731","126.8177","1","2022-12-01"
"강서구","C201057_방화1동 180-7(고정3)","37.5731","126.8177","1","2022-12-01"
"강서구","C201057_방화1동 180-7_PTZ","37.5731","126.8177","1","2022-12-01"
"강서구","C201058_방화동 500-8(고정1)","37.5727","126.8047","1","2022-12-01"
"강서구","C211001(A1058)_방화2동 583-25","37.5699","126.8104","2","2022-12-01"
"강서구","C211002(A1059)_방화2동 592-44","37.5687","126.8105","2","2022-12-01"
"강서구","C211002(A1059)_방화2동 592-44(보조1) 9시 미라벨하우스","37.5687","126.8105","1","2022-12-01"
"강서구","C211003(A1060)_방화2동 605-8","37.5665","126.8109","2","2022-12-01"
"강서구","C211003(A1060)_방화2동 605-8(보조1) (10시 현대빌라)","37.5665","126.8109","1","2022-12-01"
"강서구","C211004(A1061)_방화2동 614-225","37.5654","126.8107","1","2022-12-01"
"강서구","C211004(A1061)_방화2동614-225(보조1) (5시 공항성산교회)","37.5655","126.8107","1","2022-12-01"
"강서구","C211005_방화2동 615-79","37.5653","126.8088","1","2022-12-01"
"강서구","C211005_방화2동 615-79","37.5654","126.8088","1","2022-12-01"
"강서구","C211005_방화2동 615-79(보조1)동산슈퍼방향","37.5654","126.8088","1","2022-12-01"
"강서구","C211006(A1063)_방화2동  646-101(보조1)개화동로23길50방향","37.5667","126.8076","1","2022-12-01"
"강서구","C211006(A1063)_방화2동 646-101","37.5667","126.8076","1","2022-12-01"
"강서구","C211007_개화동 241-12","37.5876","126.8026","2","2022-12-01"
"강서구","C211008(A2004)_개화동 418-194","37.5802","126.8000","2","2022-12-01"
"강서구","C211008(A2004)_개화동 418-194(보조1) (11시 개화동로7길 9-5)","37.5802","126.8000","1","2022-12-01"
"강서구","C211009(A2005)_개화동 461-34","37.5787","126.8019","1","2022-12-01"
"강서구","C211009(A2005)_개화동 461-34(보조1) (5시 개화동로 13길 23-6)","37.5787","126.8019","1","2022-12-01"
"강서구","C211010(A2023)_방화2동 615-40","37.5645","126.8082","2","2022-12-01"
"강서구","C211010(A2023)_방화2동 615-40(보조1)노른자고시텔방향","37.5645","126.8082","1","2022-12-01"
"강서구","C211010(A2023)_방화2동 615-40(보조2)서울중앙교회방향","37.5645","126.8082","1","2022-12-01"
"강서구","C211011(A4045)_방화2동 547-11","37.5693","126.8087","2","2022-12-01"
"강서구","C211012(A4046)_방화2동 557-17","37.5722","126.8089","2","2022-12-01"
"강서구","C211014[경찰방범]_방화2동 612-172","37.5638","126.8098","1","2022-12-01"
"강서구","C211015(A8025)_개화동 451-22(개화동로9길15)","37.5792","126.8011","2","2022-12-01"
"강서구","C211016(A8026)_개화동 460-3 (개화동로13길)","37.5796","126.8029","1","2022-12-01"
"강서구","C211016(A8026)_개화동 460-3 (개화동로13길)","37.5799","126.8032","3","2022-12-01"
"강서구","C211017(A8027)_개화동 463-78 (개화동로13길42)","37.5786","126.8029","2","2022-12-01"
"강서구","C211018_방화2동 605-21 (금낭화로5길7) - 카메라 1","37.5667","126.8113","1","2022-12-01"
"강서구","C211019(A8039)_방화2동 587-31 (금낭화로5길48)","37.5666","126.8095","2","2022-12-01"
"강서구","C211020_방화2동 614-18 공항시장역 2번출구 주변(방화동로41)","37.5645","126.8112","2","2022-12-01"
"강서구","C211020_방화2동 614-18 공항시장역 2번출구 주변(방화동로41)(보조1)","37.5645","126.8112","1","2022-12-01"
"강서구","C211021_개화동 246-10 - 카메라 1","37.5887","126.8024","1","2022-12-01"
"강서구","C211022_방화2동 620-29 - 카메라 1","37.5629","126.8085","1","2022-12-01"
"강서구","C211022_방화2동 620-29(보조1) - 카메라 1","37.5629","126.8085","1","2022-12-01"
"강서구","C211022_방화2동 620-29(보조1)개화동로31길38방향","37.5629","126.8085","1","2022-12-01"
"강서구","C211022_방화2동 620-29(보조2)공항타워펠리스오피스텔3방향","37.5629","126.8085","1","2022-12-01"
"강서구","C211024_개화동 227 - 카메라 1","37.5870","126.8015","1","2022-12-01"
"강서구","C211024_개화동 227(보조1) (3시 개화길7)","37.5870","126.8015","1","2022-12-01"
"강서구","C211025_방화2동 553-22","37.5708","126.8095","1","2022-12-01"
"강서구","C211025_방화2동 553-22(보조1)도시개발공사12단지아파트방향","37.5708","126.8095","1","2022-12-01"
"강서구","C211026_방화2동 564-62(고정1)","37.5712","126.8111","1","2022-12-01"
"강서구","C211027_방화2동 596-15","37.5683","126.8110","1","2022-12-01"
"강서구","C211028_방화2동 606-18","37.5659","126.8108","1","2022-12-01"
"강서구","C211028_방화2동 606-18(보조1) 7시","37.5659","126.8108","1","2022-12-01"
"강서구","C211028_방화2동 606-18(보조2)","37.5659","126.8108","1","2022-12-01"
"강서구","C211029_방화2동 612-231","37.5640","126.8101","1","2022-12-01"
"강서구","C211030_방화2동 564-28","37.5709","126.8110","3","2022-12-01"
"강서구","C211030_방화2동 564-28(보조1)현대맨션방향","37.5709","126.8110","1","2022-12-01"
"강서구","C211031_방화2동 593-58(고정1)서울에덴교회방향","37.5695","126.8109","1","2022-12-01"
"강서구","C211031_방화2동 593-58(고정2)해담어린이집방향","37.5695","126.8109","1","2022-12-01"
"강서구","C211032_방화2동 588-5(고정1)금낭화로5길27방향","37.5670","126.8090","1","2022-12-01"
"강서구","C211032_방화2동 588-5(고정2)에벤에셀교회","37.5670","126.8090","1","2022-12-01"
"강서구","C211033_방화2동 598-18(고정1)서울양평교회방향","37.5673","126.8127","1","2022-12-01"
"강서구","C211033_방화2동 598-18(고정2)관음사방향","37.5673","126.8127","1","2022-12-01"
"강서구","C211034_방화2동 559-5(고정1)개화주유소방향","37.5724","126.8102","2","2022-12-01"
"강서구","C211034_방화2동 559-5(고정2)무지개어린이집방향","37.5724","126.8102","1","2022-12-01"
"강서구","C211034_방화2동 559-5(고정3)방화프라자약국방","37.5724","126.8102","1","2022-12-01"
"강서구","C211035_개화동 452-70(고정1) (7시 개화역)","37.5804","126.8005","1","2022-12-01"
"강서구","C211035_개화동 452-70(고정2) (11시 개화동교회)","37.5804","126.8005","1","2022-12-01"
"강서구","C211035_개화동 452-70(고정3) (1시)","37.5804","126.8005","1","2022-12-01"
"강서구","C211036_개화동 418-142(고정1) (7시 개화동로)","37.5811","126.7997","1","2022-12-01"
"강서구","C211036_개화동 418-142(고정2) (5시 내촌공원)","37.5811","126.7997","1","2022-12-01"
"강서구","C211036_개화동 418-142(고정3) (11시 개화동교회)","37.5811","126.7997","1","2022-12-01"
"강서구","C211037_개화동 421-60(고정1) (9시 개화동로)","37.5822","126.7991","1","2022-12-01"
"강서구","C211037_개화동 421-60(고정2) (12시 신대부속공원)","37.5822","126.7991","1","2022-12-01"
"강서구","C211037_개화동 421-60(고정3) (6시 경동미르웰)","37.5822","126.7991","1","2022-12-01"
"강서구","C211038_개화동 산81-13 개화산 호국공원(고정1)","37.5812","126.8044","1","2022-12-01"
"강서구","C211038_개화동 산81-13 개화산 호국공원(고정2)","37.5812","126.8044","1","2022-12-01"
"강서구","C211039_방화2동 564-94(고정1)유맥스방향","37.5716","126.8101","1","2022-12-01"
"강서구","C211040_방화동 645-42(고정1)에어포트주유소방향","37.5660","126.8072","1","2022-12-01"
"강서구","C211040_방화동 645-42(고정2)형제아파트방향","37.5660","126.8072","1","2022-12-01"
"강서구","C211041_방화2동 648-30(고정1)원광택시방향","37.5668","126.8066","1","2022-12-01"
"강서구","C211041_방화2동 648-30(고정2)민들레공원방향","37.5668","126.8066","1","2022-12-01"
"강서구","C211041_방화2동 648-30(고정3)방화2동경로당방향","37.5668","126.8066","1","2022-12-01"
"강서구","C211042_방화2동 617-22(고정1)방화동로3길52방향","37.5647","126.8076","1","2022-12-01"
"강서구","C211042_방화2동 617-22(고정2)방화빌라방향","37.5647","126.8076","1","2022-12-01"
"강서구","C211043_방화2동(개화동)463-42(고정1)개화동로13길13방향","37.5795","126.8017","1","2022-12-01"
"강서구","C211044_방화2동(개화동) 560-20(고정1 )(1시)","37.5760","126.8023","1","2022-12-01"
"강서구","C211044_방화2동(개화동) 560-20(고정2)(5시)","37.5760","126.8023","1","2022-12-01"
"강서구","C211044_방화2동(개화동) 560-20(고정3)(11시)","37.5760","126.8023","1","2022-12-01"
"강서구","C211045_방화2동 564-27(고정1)금낭화로11길3-13방향","37.5709","126.8112","1","2022-12-01"
"강서구","C211046_방화2동 648-57(고정1)방화2경로당방향","37.5670","126.8073","1","2022-12-01"
"강서구","C211046_방화2동 648-57(고정2)잼잼어린이집방향","37.5670","126.8073","1","2022-12-01"
"강서구","C211047_방화2동 645-19(고정1)개화동로23길6-11방향","37.5667","126.8062","1","2022-12-01"
"강서구","C211047_방화2동 645-19(고정2)신광빌딩방향","37.5667","126.8062","1","2022-12-01"
"강서구","C211048_방화2동 596-10(고정1)장재민정형외과의원방향","37.5684","126.8108","1","2022-12-01"
"강서구","C211049_개화동 246-13(고정1)","37.5888","126.8019","1","2022-12-01"
"강서구","C211049_방화2동(개화동) 246-13(고정2)개화길84방향","37.5888","126.8019","1","2022-12-01"
"강서구","C211051_방화2동 646-55(고정1)성문중앙교회방향","37.5660","126.8092","1","2022-12-01"
"강서구","C211052_방화2동 620-134(고정1)서울떡집방향","37.5630","126.8095","1","2022-12-01"
"강서구","C211053_방화2동 580-130(고정1)","37.5691","126.8128","1","2022-12-01"
"강서구","C211053_방화2동 580-130(고정2)","37.5691","126.8128","1","2022-12-01"
"강서구","C211054_방화2동 614-137(고정1)","37.5646","126.8086","1","2022-12-01"
"강서구","C211055_방화2동 606-71(고정1)","37.5663","126.8110","1","2022-12-01"
"강서구","C211055_방화2동 606-71(고정2)","37.5663","126.8110","1","2022-12-01"
"강서구","C211055_방화2동 606-71(고정3)","37.5663","126.8113","1","2022-12-01"
"강서구","C211055_방화2동 606-71(고정4)","37.5663","126.8113","1","2022-12-01"
"강서구","C211056_방화2동 620-38(고정1)","37.5630","126.8082","1","2022-12-01"
"강서구","C211057_방화2동(개화동) 460(고정1) (5시)","37.5797","126.8021","1","2022-12-01"
"강서구","C211057_방화2동(개화동) 460(고정2) (7시)","37.5797","126.8021","1","2022-12-01"
"강서구","C211057_방화2동(개화동) 466-27(고정1) (5시)","37.5781","126.8019","1","2022-12-01"
"강서구","C211057_방화2동(개화동) 466-27(고정2) (11시)","37.5781","126.8019","1","2022-12-01"
"강서구","C211058_방화2동 580-25(고정1)","37.5709","126.8123","1","2022-12-01"
"강서구","C211058_방화2동 580-25(보조2)","37.5709","126.8123","1","2022-12-01"
"강서구","C211058_방화2동 580-25(보조3)","37.5709","126.8123","1","2022-12-01"
"강서구","C211059_방화2동 131-7(고정1)","37.5780","126.8181","1","2022-12-01"
"강서구","C211059_방화2동 131-7(고정2)","37.5780","126.8182","1","2022-12-01"
"강서구","C211060_방화2동 620-75(고정1)","37.5632","126.8089","1","2022-12-01"
"강서구","C211060_방화2동 620-75(고정1)","37.5633","126.8089","1","2022-12-01"
"강서구","C211062_방화2동 648-25(고정1)","37.5679","126.8062","1","2022-12-01"
"강서구","C211062_방화2동 648-25(고정2)","37.5679","126.8061","1","2022-12-01"
"강서구","C211062_방화2동 648-25(고정3)","37.5679","126.8061","1","2022-12-01"
"강서구","C211063_방화2동 612-52(고정1)","37.5637","126.8082","1","2022-12-01"
"강서구","C211064_방화2동 603-26(고정1) - 12시 북향","37.5671","126.8105","1","2022-12-01"
"강서구","C211064_방화2동 603-26(고정2) - 6시 남향","37.5671","126.8106","1","2022-12-01"
"강서구","C211064_방화2동 603-26(고정3) - 9시 골목 방향","37.5671","126.8106","1","2022-12-01"
"강서구","C211065_개화동 산81-13(고정1)","37.5803","126.8033","1","2022-12-01"
"강서구","C211065_개화동 산81-13(고정2)","37.5803","126.8033","1","2022-12-01"
"강서구","C211066_방화2동 612-254(고정1)","37.5649","126.8098","1","2022-12-01"
"강서구","C211066_방화2동 612-254(고정2)","37.5649","126.8098","1","2022-12-01"
"강서구","C211067_방화2동 845(고정1)","37.5727","126.8052","1","2022-12-01"
"강서구","C211068_방화2동 598-16(고정1)","37.5668","126.8122","1","2022-12-01"
"강서구","C211068_방화2동 598-16(고정2)","37.5668","126.8122","1","2022-12-01"
"강서구","C211069_방화2동 587-44(고정1)","37.5661","126.8093","1","2022-12-01"
"강서구","C211069_방화2동 587-44(고정2)","37.5661","126.8093","1","2022-12-01"
"강서구","C211070_방화2동 536-1(고정1)","37.5726","126.8084","1","2022-12-01"
"강서구","C211070_방화2동 536-1(고정2)","37.5726","126.8084","1","2022-12-01"
"강서구","C211070_방화2동 536-1(고정3)","37.5726","126.8084","1","2022-12-01"
"강서구","C211071_방화2동 614-76(고정1)","37.5642","126.8101","1","2022-12-01"
"강서구","C211072_방화2동 612-120(고정1)","37.5638","126.8090","1","2022-12-01"
"강서구","C211072_방화2동 612-120(고정2)","37.5638","126.8090","1","2022-12-01"
"강서구","C211073_방화2동 606-15(고정1)","37.5655","126.8117","1","2022-12-01"
"강서구","C211073_방화2동 606-15(고정2)","37.5655","126.8117","1","2022-12-01"
"강서구","C211073_방화2동 606-15(고정3)","37.5655","126.8117","1","2022-12-01"
"강서구","C211074_방화2동 615-71(고정1)","37.5655","126.8084","1","2022-12-01"
"강서구","C211075_개화동 244-16(고정1)(5시)","37.5881","126.8023","1","2022-12-01"
"강서구","C211075_개화동 244-16(고정2)(9시)","37.5881","126.8023","1","2022-12-01"
"강서구","C211076_개화동 620-8(고정1)(3시)","37.5878","126.8017","1","2022-12-01"
"강서구","C211076_개화동 620-8(고정2)(12시)","37.5878","126.8017","1","2022-12-01"
"강서구","C211076_개화동 620-8(고정3)(6시)","37.5878","126.8017","1","2022-12-01"
"강서구","C211077_개화동 230-17(고정1)(1시)","37.5865","126.8017","1","2022-12-01"
"강서구","C211077_개화동 230-17(고정2)(4시)","37.5865","126.8017","1","2022-12-01"
"강서구","C211078_개화동 224-3(고정1)(7시)","37.5868","126.8012","1","2022-12-01"
"강서구","C211078_개화동 224-3(고정2)(5시)","37.5868","126.8012","1","2022-12-01"
"강서구","C211078_방화2동(개화동) 230-20(분기고정1)(1시)","37.5864","126.8021","1","2022-12-01"
"강서구","C211079_개화동 361(고정1)(1시)","37.5845","126.8002","1","2022-12-01"
"강서구","C211079_개화동 361(고정2)(3시)","37.5845","126.8002","1","2022-12-01"
"강서구","C211079_개화동 361(고정3)(6시)","37.5845","126.8002","1","2022-12-01"
"강서구","C211080_방화2동(개화동)374-20(고정1)(3시)","37.5835","126.7993","1","2022-12-01"
"강서구","C211080_방화2동(개화동)374-20(고정2)(1시)","37.5835","126.7993","1","2022-12-01"
"강서구","C211081_개화동 373-64(고정1)(12시)","37.5832","126.7986","1","2022-12-01"
"강서구","C211081_개화동 373-64(고정2)(6시)","37.5832","126.7986","1","2022-12-01"
"강서구","C211082_개화동 423-16(고정1)(12시)","37.5822","126.7987","1","2022-12-01"
"강서구","C211082_개화동 423-16(고정2)(6시)","37.5822","126.7987","1","2022-12-01"
"강서구","C211083_개화동 421-87(고정1)","37.5805","126.7992","1","2022-12-01"
"강서구","C211084_개화동 418-219(고정1)(11시)","37.5800","126.7996","1","2022-12-01"
"강서구","C211084_개화동 418-219(고정2)(5시)","37.5800","126.7996","1","2022-12-01"
"강서구","C211085_개화동 452-101(고정1)(5시)","37.5804","126.8007","1","2022-12-01"
"강서구","C211086_개화동 460-54(고정1)(11시)","37.5793","126.8014","1","2022-12-01"
"강서구","C211086_개화동 460-54(고정2)(5시)","37.5793","126.8014","1","2022-12-01"
"강서구","C211087_개화동 448-5(고정1)(11시)","37.5789","126.8003","1","2022-12-01"
"강서구","C211087_개화동 448-5(고정2)(2시)","37.5789","126.8003","1","2022-12-01"
"강서구","C211087_개화동 448-5(고정3)(5시)","37.5789","126.8003","1","2022-12-01"
"강서구","C211088_개화동 477-27(고정1)(5시)","37.5791","126.8007","1","2022-12-01"
"강서구","C211088_개화동 477-27(고정2)(1시)","37.5791","126.8007","1","2022-12-01"
"강서구","C211089_개화동 474-73(고정1)(7시)","37.5780","126.8014","1","2022-12-01"
"강서구","C211089_개화동 474-73(고정2)(11시)","37.5780","126.8014","1","2022-12-01"
"강서구","C211090_개화동 552-24(고정1)(11시)","37.5774","126.8018","1","2022-12-01"
"강서구","C211090_개화동 552-24(고정2)(5시)","37.5774","126.8018","1","2022-12-01"
"강서구","C211090_개화동 552-24(고정3)(2시)","37.5774","126.8018","1","2022-12-01"
"강서구","C211091_개화동 471-16(고정1)(11시)","37.5777","126.8025","1","2022-12-01"
"강서구","C211091_개화동 471-16(고정2)(2시)","37.5777","126.8025","1","2022-12-01"
"강서구","C211091_개화동 471-16(고정3)(5시)","37.5777","126.8025","1","2022-12-01"
"강서구","C211092_개화동 556-56(고정1)","37.5766","126.8019","1","2022-12-01"
"강서구","C211093_개화동 558-93(고정1)(11시)","37.5770","126.8025","1","2022-12-01"
"강서구","C211093_개화동 558-93(고정2)(8시)","37.5770","126.8025","1","2022-12-01"
"강서구","C211093_개화동 558-93(고정3)(5시)","37.5770","126.8025","1","2022-12-01"
"강서구","C211094_개화동 559-62(고정1)(5시)","37.5761","126.8027","1","2022-12-01"
"강서구","C211094_개화동 559-62(고정2)(11시)","37.5761","126.8027","1","2022-12-01"
"강서구","C211095_개화길 고속도로 아래(고정1)(7시)","37.5860","126.7999","1","2022-12-01"
"강서구","C211095_개화길 고속도로 아래(고정2)(1시)","37.5860","126.7999","1","2022-12-01"
"강서구","C211095_개화길 고속도로 아래(고정3)(10시 간선수로방향)","37.5860","126.7999","1","2022-12-01"
"강서구","C211096_개화3길 산책로1(고정1)","37.5864","126.7998","1","2022-12-01"
"강서구","C211096_개화3길 산책로1(고정2)","37.5864","126.7998","1","2022-12-01"
"강서구","C211097_개화3길 산책로2(고정1)(5시)","37.5858","126.7991","1","2022-12-01"
"강서구","C211097_개화3길 산책로2(고정2)(1시)","37.5858","126.7991","1","2022-12-01"
"강서구","C211097_개화3길 산책로2(고정3)(10시)","37.5858","126.7991","1","2022-12-01"
"강서구","C211098_개화3길 산책로3(고정1)(1시)","37.5852","126.7988","1","2022-12-01"
"강서구","C211098_개화3길 산책로3(고정2)(9시)","37.5852","126.7988","1","2022-12-01"
"강서구","C211098_개화3길 산책로3(고정3)(7시)","37.5852","126.7988","1","2022-12-01"
"강서구","C211099_개화동 360-1(고정1)(1시)","37.5844","126.8005","1","2022-12-01"
"강서구","C211100_방화2동 616-1(고정1)","37.5649","126.8079","1","2022-12-01"
"강서구","C211100_방화2동 616-1(고정2)","37.5649","126.8079","1","2022-12-01"
"강서구","C211102_방화동 580-43_고정1","37.5693","126.8123","1","2022-12-01"
"강서구","C211102_방화동 580-43_고정2","37.5693","126.8123","1","2022-12-01"
"강서구","C211102_방화동 580-43_고정3","37.5697","126.8128","1","2022-12-01"
"강서구","C211103_방화동 614-133 사거리_고정1","37.5658","126.8101","1","2022-12-01"
"강서구","C211103_방화동 614-133 사거리_고정2","37.5658","126.8101","1","2022-12-01"
"강서구","C211103_방화동 614-133 사거리_고정3","37.5658","126.8101","1","2022-12-01"
"강서구","C211104_방화동 612-285_고정1","37.5625","126.8078","1","2022-12-01"
"강서구","C211105_방화동 587-3_고정1","37.5666","126.8084","1","2022-12-01"
"강서구","C211105_방화동 587-3_고정2","37.5666","126.8084","1","2022-12-01"
"강서구","C211105_방화동 587-3_고정3","37.5666","126.8084","1","2022-12-01"
"강서구","C211105_방화동 587-3_고정4","37.5666","126.8084","1","2022-12-01"
"강서구","C211106_방화동 598-35_고정1","37.5674","126.8127","1","2022-12-01"
"강서구","C211107_방화동 620-247_PTZ","37.5624","126.8075","1","2022-12-01"
"강서구","C211107_방화동 620-247_보조1","37.5624","126.8075","1","2022-12-01"
"강서구","C211107_방화동 620-247_보조2","37.5624","126.8075","1","2022-12-01"
"강서구","C211107_방화동 620-247_보조3","37.5624","126.8075","1","2022-12-01"
"강서구","C211108_방화동 612-192_고정1","37.5644","126.8097","1","2022-12-01"
"강서구","C211108_방화동 612-192_고정2","37.5644","126.8097","1","2022-12-01"
"강서구","C211109_방화동 614-107_고정1","37.5654","126.8099","1","2022-12-01"
"강서구","C211109_방화동 614-107_고정2","37.5654","126.8099","1","2022-12-01"
"강서구","C211109_방화동 614-107_고정3","37.5654","126.8099","1","2022-12-01"
"강서구","C211109_방화동 614-107_고정4","37.5655","126.8098","1","2022-12-01"
"강서구","C211109_방화동 614-107_고정5","37.5655","126.8098","1","2022-12-01"
"강서구","C211110_방화동 588-23_고정1","37.5670","126.8089","1","2022-12-01"
"강서구","C211110_방화동 588-23_고정2","37.5670","126.8089","1","2022-12-01"
"강서구","C221001(A2026)_방화3동 128-1","37.5791","126.8185","2","2022-12-01"
"강서구","C221002_방화3동 330-15","37.5784","126.8159","2","2022-12-01"
"강서구","C221002_방화3동 330-15(보조)(금낭화로24나길1)치현교회방향","37.5784","126.8159","1","2022-12-01"
"강서구","C221003[경찰방범]_방화3동 132-71","37.5777","126.8178","1","2022-12-01"
"강서구","C221004(A8028)_방화3동 319-12 (방화대로49길6-11)","37.5775","126.8162","2","2022-12-01"
"강서구","C221005(A8041)_방화3동 833 사잇길(방화대로47길 43)","37.5757","126.8139","2","2022-12-01"
"강서구","C221006_방화3동 132-10 예담쉐르빌2차 앞(분기-고정1)다대화이트빌방향","37.5773","126.8183","1","2022-12-01"
"강서구","C221006_방화3동 132-10 예담쉐르빌2차 앞(분기-고정2)코알라어린이집방향","37.5773","126.8183","1","2022-12-01"
"강서구","C221006_방화동 134-20 다대화이트빌 앞","37.5778","126.8189","1","2022-12-01"
"강서구","C221006_방화동 134-20 다대화이트빌 앞 - 카메라 1","37.5778","126.8189","1","2022-12-01"
"강서구","C221007_방화3동 353-2(고정1)방화동동일스위트리버아파트방향","37.5785","126.8152","1","2022-12-01"
"강서구","C221007_방화3동 353-2(고정2)금낭화로24길29-5방향","37.5785","126.8152","1","2022-12-01"
"강서구","C221008_방화동 809-5 - 카메라 1","37.5758","126.8096","1","2022-12-01"
"강서구","C221009_방화동 136-10(고정1)코알라어린이집방향","37.5765","126.8181","1","2022-12-01"
"강서구","C221010_방화3동 326-1","37.5771","126.8151","1","2022-12-01"
"강서구","C221011_방화3동 880","37.5796","126.8162","1","2022-12-01"
"강서구","C221012_방화3동 819-3(방화근린공원)","37.5815","126.8127","1","2022-12-01"
"강서구","C221012_방화3동 819-3(방화근린공원)(보조1)삼정중학교방향","37.5815","126.8127","1","2022-12-01"
"강서구","C221013_방화3동 855","37.5829","126.8120","1","2022-12-01"
"강서구","C221013_방화3동 855(보조1)","37.5829","126.8120","1","2022-12-01"
"강서구","C221014_방화3동 813-7(고정1)능말경로당방향","37.5760","126.8113","1","2022-12-01"
"강서구","C221014_방화3동 813-7(고정2)금낭화로19길26방향","37.5760","126.8113","1","2022-12-01"
"강서구","C221015_방화3동 812-3(고정1)금낭화로19길35방향","37.5756","126.8109","1","2022-12-01"
"강서구","C221015_방화3동 812-3(고정2)능말경로당방향","37.5756","126.8109","1","2022-12-01"
"강서구","C221016_방화3동 804(고정1)방원중학교방향","37.5767","126.8087","1","2022-12-01"
"강서구","C221016_방화3동 804(고정2)개화사방향","37.5767","126.8087","1","2022-12-01"
"강서구","C221017(A4047)_방화3동 826(메아리공원)","37.5785","126.8141","2","2022-12-01"
"강서구","C221018_방화3동 817(삼정중 정문)(고정1)","37.5807","126.8112","1","2022-12-01"
"강서구","C221018_방화3동 817(삼정중 정문)(고정2)","37.5806","126.8112","1","2022-12-01"
"강서구","C221019_방화3동 829-10(고정1)","37.5771","126.8123","1","2022-12-01"
"강서구","C221020_방화3동 816-1(고정1)","37.5789","126.8132","1","2022-12-01"
"강서구","C221020_방화3동 816-1(고정2)","37.5789","126.8132","1","2022-12-01"
"강서구","C221021_방화3동 842-5(고정1)","37.5759","126.8201","1","2022-12-01"
"강서구","C221021_방화3동 842-5(고정2)","37.5759","126.8201","1","2022-12-01"
"강서구","C221021_방화3동 842-5(고정3)","37.5759","126.8201","1","2022-12-01"
"강서구","C221022_방화3동 834-3(고정1)","37.5765","126.8166","1","2022-12-01"
"강서구","C221022_방화3동 834-3(고정2)","37.5765","126.8166","1","2022-12-01"
"강서구","C221023_방화3동 817(동성아파트 106동 앞)(고정1)","37.5789","126.8124","1","2022-12-01"
"강서구","C221023_방화3동 817(동성아파트 106동 앞)(고정2)","37.5789","126.8124","1","2022-12-01"
"강서구","C221024_방화3동 323-1(고정1)","37.5777","126.8156","1","2022-12-01"
"강서구","C221024_방화3동 323-1(고정2)","37.5777","126.8156","1","2022-12-01"
"강서구","C221025_방화3동 813(고정1)","37.5762","126.8099","1","2022-12-01"
"강서구","C221025_방화3동 813(고정2)","37.5762","126.8099","1","2022-12-01"
"강서구","C221026_방화3동 856(고정1)","37.5812","126.8113","1","2022-12-01"
"강서구","C221027_방화3동 822(고정1)","37.5799","126.8146","1","2022-12-01"
"강서구","C221027_방화3동 822(고정2)","37.5799","126.8146","1","2022-12-01"
"강서구","C221027_방화3동 822(고정3)","37.5799","126.8146","1","2022-12-01"
"강서구","C221027_방화3동 822_PTZ","37.5799","126.8146","1","2022-12-01"
"강서구","C231001_염창동 244-38","37.5528","126.8701","2","2022-12-01"
"강서구","C231001_염창동 244-38(보조1)염창중학교방향","37.5528","126.8701","1","2022-12-01"
"강서구","C231002(A1068)_염창동 276-9","37.5498","126.8702","1","2022-12-01"
"강서구","C231002(A1068)_염창동 276-9(보조1)염창교회방향","37.5498","126.8702","1","2022-12-01"
"강서구","C231004(A1407)_염창동 255","37.5513","126.8772","2","2022-12-01"
"강서구","C231004(A1407)_염창동 255(보조1)안양천로방향","37.5513","126.8772","1","2022-12-01"
"강서구","C231005(A4001)_염창동 266-14","37.5505","126.8709","2","2022-12-01"
"강서구","C231005(A4001)_염창동 266-14(보조1)공항대로65길 69-10방향","37.5505","126.8709","1","2022-12-01"
"강서구","C231006(A8001)_염창동 75-7 (양천로67길93-23)","37.5563","126.8718","2","2022-12-01"
"강서구","C231007(A8002)_염창동 70-2 (양천로67길71-17)","37.5570","126.8712","2","2022-12-01"
"강서구","C231008(A8003)_염창동 287-1 (양천로67길54)","37.5554","126.8690","2","2022-12-01"
"강서구","C231009(A8004)_염창동 266-1","37.5514","126.8700","2","2022-12-01"
"강서구","C231011(A8006)_염창동 293 (양천로73길80)","37.5546","126.8742","2","2022-12-01"
"강서구","C231012(A8007)_염창동 53-1 (양천로67길63)","37.5535","126.8711","1","2022-12-01"
"강서구","C231013_염창동 252-20","37.5502","126.8752","1","2022-12-01"
"강서구","C231013_염창동 252-20(보조1)염창동동아3차아파트방향","37.5502","126.8752","1","2022-12-01"
"강서구","C231013_염창동 252-20(보조2)염창힐스테이트아파트방향","37.5502","126.8752","1","2022-12-01"
"강서구","C231015_염창동 242-13","37.5550","126.8668","1","2022-12-01"
"강서구","C231016_염창동 264-18(고정1)양천로방향","37.5495","126.8732","1","2022-12-01"
"강서구","C231016_염창동 264-18(고정2)극동상록수아파트방향","37.5495","126.8732","1","2022-12-01"
"강서구","C231017_염창동 264-18(고정1)삼성한아름아파트방향","37.5492","126.8728","1","2022-12-01"
"강서구","C231017_염창동 264-18(고정2) 이수공원방향","37.5492","126.8728","1","2022-12-01"
"강서구","C231017_염창동 264-18(고정2)이수공원방향","37.5491","126.8728","1","2022-12-01"
"강서구","C231018_염창동 240-51(고정1)염창금호아파트방향","37.5571","126.8658","1","2022-12-01"
"강서구","C231019_염창동 241-33(고정1) - 양천로 방향","37.5563","126.8656","1","2022-12-01"
"강서구","C231019_염창동 241-33(고정2)염창동강변메르디앙방향","37.5563","126.8656","1","2022-12-01"
"강서구","C231020_염창동 57(고정1)신동아아파트1동방향","37.5548","126.8701","1","2022-12-01"
"강서구","C231021_염창동 276(고정1)가람온누리약국방향","37.5502","126.8687","1","2022-12-01"
"강서구","C231021_염창동 276(고정2)염창교회방향","37.5502","126.8687","1","2022-12-01"
"강서구","C231021_염창동 276(고정3)등촌역방향","37.5502","126.8687","1","2022-12-01"
"강서구","C231022_염창동 산32-9(고정1) 6시 염창길훈아파트101동방향","37.5565","126.8678","1","2022-12-01"
"강서구","C231022_염창동 산32-9(고정2) 10시 강변한솔파크106동방향","37.5565","126.8678","1","2022-12-01"
"강서구","C231023_염창동 266-12(고정1) - 백합공원방향","37.5504","126.8703","1","2022-12-01"
"강서구","C231023_염창동 266-12(고정2) - 양천로 방향","37.5503","126.8703","1","2022-12-01"
"강서구","C231024_염창동 240-1(고정1)염창동강변메르디앙103동방향","37.5579","126.8658","1","2022-12-01"
"강서구","C231024_염창동 240-1(고정2)강변한솔솔파크아파트방향","37.5579","126.8658","1","2022-12-01"
"강서구","C231025_염창동 282-4(고정1)삼정그린코아아파트방향","37.5480","126.8762","1","2022-12-01"
"강서구","C231025_염창동 282-4(고정2) - 재원빌딩 방향","37.5480","126.8762","1","2022-12-01"
"강서구","C231025_염창동 282-4(고정3) KOCOM빌딩 방향","37.5480","126.8762","1","2022-12-01"
"강서구","C231026_염창동 294(고정1) 강변한솔솔파크와 길훈아파트 사잇길","37.5555","126.8676","1","2022-12-01"
"강서구","C231026_염창동 294(고정2)양천로방향","37.5553","126.8679","1","2022-12-01"
"강서구","C231026_염창동 294(고정3)강변한솔솔파크107동방향","37.5555","126.8676","1","2022-12-01"
"강서구","C231026_염창동 294(고정4)염창우성2차아파트방향","37.5553","126.8679","1","2022-12-01"
"강서구","C231027_염창동 282-7(고정1) - 이수공원 방향","37.5480","126.8766","1","2022-12-01"
"강서구","C231027_염창동 282-7(고정2) - 양천로 방향","37.5481","126.8765","1","2022-12-01"
"강서구","C231027_염창동 282-7(고정3) - KOCOM빌딩 방향","37.5480","126.8766","1","2022-12-01"
"강서구","C231027_염창동 282-7(고정4) - 공항대로 방향","37.5481","126.8765","1","2022-12-01"
"강서구","C231028_염창동 63-24(고정1) - 염경초등학교 방향","37.5560","126.8687","1","2022-12-01"
"강서구","C231028_염창동 63-24(고정2) - 양천로 방향","37.5560","126.8687","1","2022-12-01"
"강서구","C231029_염창동 290(고정1) - 양천로 방향","37.5579","126.8665","1","2022-12-01"
"강서구","C231029_염창동 290(고정2) - 길훈아파트 방향","37.5579","126.8665","1","2022-12-01"
"강서구","C231030_염창동 241-6(고정1)","37.5561","126.8660","1","2022-12-01"
"강서구","C231030_염창동 241-6(고정1) - 금호타운아파트 방향","37.5561","126.8660","1","2022-12-01"
"강서구","C231030_염창동 241-6(고정2) - 양천로 방향","37.5561","126.8660","1","2022-12-01"
"강서구","C231031_염창동 267-24(고정1) 공원내부 방향","37.5510","126.8695","1","2022-12-01"
"강서구","C231031_염창동 267-24(고정2) 보람더하임 아파트 방향","37.5510","126.8695","1","2022-12-01"
"강서구","C231032_염창동 241-13(고정1) 강변월드 메르디앙아파트 방향","37.5557","126.8653","1","2022-12-01"
"강서구","C231032_염창동 241-13(고정2) 증미역 방향","37.5557","126.8653","1","2022-12-01"
"강서구","C231032_염창동 241-13(고정3) 염창초등학교 방향","37.5557","126.8653","1","2022-12-01"
"강서구","C231033_염창동 이수어린이공원(고정1) 공원내부 방향","37.5483","126.8746","1","2022-12-01"
"강서구","C231033_염창동 이수어린이공원(고정2) 양천로 방향","37.5483","126.8746","1","2022-12-01"
"강서구","C231034_염창동 272-11(고정1) 우성아파트 방향","37.5502","126.8674","1","2022-12-01"
"강서구","C231036_염창동 184-8(고정1) 양천로 방향","37.5508","126.8736","1","2022-12-01"
"강서구","C231037_염창동 248-7(고정1) 태진드림피아 아파트 방향","37.5511","126.8719","1","2022-12-01"
"강서구","C231037_염창동 248-7(고정2) 동아3차아파트 방향","37.5511","126.8719","1","2022-12-01"
"강서구","C231038_염창동 269 염창초 정문(고정1) 양천로 방향","37.5523","126.8682","1","2022-12-01"
"강서구","C231039 염창동 275 고정1 - 등촌역 방향","37.5502","126.8678","1","2022-12-01"
"강서구","C231040_염창동 257-2_PTZ","37.5503","126.8766","1","2022-12-01"
"강서구","C231040_염창동 257-2_보조1 - 강변힐스테이트 아파트 방향","37.5503","126.8766","2","2022-12-01"
"강서구","C231040_염창동 257-2_보조3 - 무학아파트 방향","37.5503","126.8766","1","2022-12-01"
"강서구","C231041_염창동 64-13_고정1- 삼천리아파트 방향","37.5566","126.8705","1","2022-12-01"
"강서구","C231041_염창동 64-13_고정2 - 우성2차 아파트 방향","37.5566","126.8705","1","2022-12-01"
"강서구","C231042_염창동 258-9 PTZ","37.5502","126.8772","1","2022-12-01"
"강서구","C231042_염창동 258-9_보조1 - 양천로 방향","37.5502","126.8772","1","2022-12-01"
"강서구","C231042_염창동 258-9_보조2 - 무학아파트 방향","37.5502","126.8772","1","2022-12-01"
"강서구","C231043_염창동 284-22_PTZ","37.5535","126.8685","1","2022-12-01"
"강서구","C231043_염창동 284-22_보조1 - 태영송화아파트 방향","37.5535","126.8685","1","2022-12-01"
"강서구","C231043_염창동 284-22_보조2 - 삼성관음아파트 방향","37.5535","126.8685","1","2022-12-01"
"강서구","C241001_우장산동 670-19","37.5540","126.8385","2","2022-12-01"
"강서구","C241001_우장산동 670-19(보조1)태창아파트방향","37.5540","126.8385","1","2022-12-01"
"강서구","C241001_우장산동 670-19(보조2)강서로방향","37.5540","126.8385","1","2022-12-01"
"강서구","C241001_우장산동 670-19(보조3)우장산로방향","37.5540","126.8385","1","2022-12-01"
"강서구","C241002_발산2동 670-30","37.5539","126.8394","1","2022-12-01"
"강서구","C241002_우장산동 670-30","37.5539","126.8394","1","2022-12-01"
"강서구","C241002_우장산동670-30(보조1)미즈메디어린이집방향","37.5539","126.8394","1","2022-12-01"
"강서구","C241003_발산2동 671-21","37.5535","126.8397","1","2022-12-01"
"강서구","C241003_우장산동 671-21","37.5535","126.8397","2","2022-12-01"
"강서구","C241004(A1045)_우장산동 672-24","37.5533","126.8410","2","2022-12-01"
"강서구","C241004(A1045)_우장산동672-24(보조1) 유림빌라 방향","37.5533","126.8410","1","2022-12-01"
"강서구","C241005(A1046)_우장산동 673","37.5543","126.8419","1","2022-12-01"
"강서구","C241005(A1046)_우장산동673(보조1) 길성그랑프리텔2차 아파트 방향","37.5543","126.8419","1","2022-12-01"
"강서구","C241006(A1047)_우장산동 674-9","37.5530","126.8397","2","2022-12-01"
"강서구","C241006(A1047)_우장산동674-9(보조1) AGS드림아파트 방향","37.5530","126.8397","1","2022-12-01"
"강서구","C241007(A1048)_우장산동 677-12","37.5527","126.8371","3","2022-12-01"
"강서구","C241007(A1048)_우장산동677-12(보조1)길성그랑프리텔아파트방향","37.5527","126.8371","1","2022-12-01"
"강서구","C241008(A1104)_우장산동 1028-25","37.5446","126.8414","1","2022-12-01"
"강서구","C241009(A1105)_우장산동 1029","37.5449","126.8385","2","2022-12-01"
"강서구","C241009(A1105)_우장산동 1029(보조1)화곡로31가길 76-18방향","37.5449","126.8385","1","2022-12-01"
"강서구","C241010(A1106)_우장산동 1059-19","37.5452","126.8421","2","2022-12-01"
"강서구","C241010(A1106)_우장산동 1059-19(보조1) 우성진경빌라 방향","37.5452","126.8421","1","2022-12-01"
"강서구","C241011(A1107)_우장산동 1053","37.5435","126.8395","1","2022-12-01"
"강서구","C241011(A1107)_우장산동 1053(보조1)화곡5-1공영주차장방향","37.5435","126.8395","1","2022-12-01"
"강서구","C241012(A1108)_우장산동 1061-36","37.5432","126.8413","2","2022-12-01"
